Site,Site_name,Lat,Lon
001000,KARUNJIE,-16.2919,127.1956
001001,OOMBULGURRI,-15.1806,127.8456
001002,BEVERLEY SP,-16.5825,125.4828
001003,PAGO MISSION,-14.1331,126.7158
001004,KUNMUNYA,-15.4167,124.7167
001005,WYNDHAM PORT,-15.4644,128.1
001006,WYNDHAM AERO,-15.51,128.1503
001007,TROUGHTON ISLAND,-13.7542,126.1485
001008,MOUNT ELIZABETH OLD SITE,-16.3017,126.1825
001009,KURI BAY,-15.4875,124.5222
001010,THEDA,-14.7885,126.4963
001011,PANTA DOWNS,-16.0497,124.95
001012,MITCHELL PLATEAU,-14.7925,125.8258
001013,WYNDHAM,-15.4869,128.1236
001014,EMMA GORGE,-15.9083,128.1286
001015,KING RIVER PUMPING STN,-15.6,128.0833
001016,CARSON RIVER STATION,-14.4861,126.7664
001017,NULLA NULLA,-15.5,127.8333
001018,MOUNT ELIZABETH,-16.4181,126.1025
001019,KALUMBURU,-14.2964,126.6453
001020,TRUSCOTT,-14.09,126.3867
001021,KALUMBURU MISSION,-14.2961,126.6431
001022,WYNDHAM SIX MILE HOTEL,-15.4997,128.1997
001023,EL QUESTRO,-16.0086,127.9806
001024,ELLENBRAE,-15.9572,127.0628
001025,DOONGAN,-15.3797,126.3114
001026,DRYSDALE RIVER STATION,-15.7031,126.3781
001027,DIGGERS REST,-15.6394,128.0803
001028,HOME VALLEY,-15.7231,127.8292
001029,WYNDHAM NORTH,-15.4467,128.1075
001030,KIMBERLEY COASTAL CAMP,-14.5786,125.9133
001031,FARAWAY BAY,-13.96,127.1964
001032,MCGOWAN ISLAND,-14.1472,126.6483
001033,DRYSDALE RIVER AIRSTRIP,-15.7119,126.3817
001034,WEST BASTION,-15.4533,128.1239
001035,PARRY CREEK FARM,-15.5972,128.2783
001036,DOONGAN ASA,-15.3792,126.3108
002000,ALICE DOWNS,-17.7569,127.9386
002001,ARGYLE DOWNS,-16.5039,128.9173
002002,BOHEMIA DOWNS,-18.8833,126.2333
002003,BOW RIVER,-16.87,128.1836
002004,GLEN HILL,-16.5833,128.3667
002005,CARLTON HILL,-15.4864,128.5344
002006,ASCOT,-15.5,128.25
002007,DUNHAM RIVER STATION,-16.3167,128.25
002008,FLORA VALLEY OLD,-18.3167,128.0
002009,GIBB RIVER,-16.4202,126.4412
002010,GORDON DOWNS,-18.7506,128.5842
002011,OLD HALLS CREEK,-18.2519,127.7817
002012,HALLS CREEK METEOROLOGICAL OFFICE,-18.2291,127.6636
002013,IVANHOE STATION,-15.69,128.6833
002014,KIMBERLEY RES.STATION,-15.6545,128.7091
002015,LAMBOO,-18.4086,127.3547
002016,LISSADELL,-16.6742,128.5533
002017,LOUISA DOWNS,-18.7106,126.7111
002018,MABEL DOWNS,-17.1792,128.1217
002019,MARGARET RIVER STATION,-18.6253,126.8617
002020,MOOLA BULLA,-18.1894,127.5011
002021,MOUNT AMHURST,-18.3869,126.9892
002022,MOUNT WINIFRED,-18.016,126.3033
002023,NICHOLSON,-18.031,128.8941
002024,ORD RIVER,-17.4,128.85
002025,ROCKHOLE DOWNS,-18.3667,127.5667
002026,RUBY PLAINS,-18.5959,127.642
002027,SPEEWA STATION,-16.35,128.0333
002028,SPRING CREEK,-16.818,128.8656
002029,STURT CREEK,-19.1625,128.1633
002030,YULMBU,-17.2986,126.9158
002031,TEXAS DOWNS,-17.0103,128.4669
002032,WARMUN,-17.0154,128.2174
002033,TURNER RIVER,-17.8,128.3
002034,ELVIRE,-18.45,127.95
002035,GREENVALE,-17.15,127.75
002036,OLD MORNINGTON HOMESTEAD,-17.3922,126.2306
002037,VIOLET VALLEY,-17.3,128.0
002038,KUNUNURRA,-15.7828,128.7353
002039,DIMOND GORGE,-17.6667,126.0333
002040,SAUNDERS CREEK,-18.0333,127.9833
002041,ORD RIVER REGENERATION STATION,-17.385,128.9231
002042,GLENROY,-17.3594,126.1086
002043,MOUNT KRAUSS,-18.3368,126.1243
002044,LAKE ARGYLE RESORT,-16.1119,128.7414
002045,FOAL CREEK,-17.3167,127.7
002046,ADA VALE,-16.95,128.1
002047,BEDFORD DOWNS,-17.2631,127.4617
002048,FLORA VALLEY,-18.2972,128.4419
002049,SOPHIE DOWNS,-18.1947,127.8147
002050,SPRINGVALE,-17.7842,127.6853
002051,BILLILUNA,-19.5557,127.6661
002052,TROPICAL FARM - ORD RIVER,-15.8367,128.7397
002053,LANSDOWNE,-17.6133,126.7442
002054,SPRINGVALE WEST,-17.8333,127.2333
002055,LEWIS CREEK,-19.1,128.5333
002056,KUNUNURRA AERO,-15.7814,128.71
002057,BUNGLE BUNGLE NATIONAL PARK,-17.4206,128.2992
002058,EUROTO,-18.35,128.4833
002059,RUBY CREEK GOLDMINE,-18.4333,127.75
002060,KINGSTON REST,-16.0397,128.415
002061,CARRANYA,-19.3322,127.6367
002062,FOX RIVER,-18.4233,128.0308
002063,LARRANGANNI,-19.8761,128.4581
002064,ARGYLE AERODROME,-16.638,128.4516
002065,MORNINGTON,-17.3936,126.2281
002066,CARRANYA 2,-19.1764,127.6497
002067,KUNUNURRA CHECKPOINT,-15.9816,128.9991
002068,MARION DOWNS,-17.0716,126.8494
002069,KACHANA,-16.4433,127.7836
002070,PHILLIPS RANGE,-16.8828,126.1267
002071,HALLS CREEK COMPARISON (OLD),-18.2303,127.6625
002072,BEDFORD DOWNS AIRSTRIP,-17.2797,127.4648
002073,MARGARET RIVER AIRSTRIP,-18.6217,126.8831
002074,MOOLA BULLA AIRSTRIP,-18.1958,127.4948
002075,BULKA,-19.0372,126.0933
002076,MORNINGTON,-17.5115,126.1095
002077,SIDDINS CREEK,-16.9203,126.5511
002078,LARRAWA AIRFIELD,-18.8318,126.5301
002081,HALLS CREEK AIRPORT (AUTO EVAP),-18.2337,127.6666
003000,BEAGLE BAY,-16.9807,122.6662
003001,COUNTRY DOWNS,-17.2767,122.5711
003002,BROOME POST OFFICE,-17.95,122.25
003003,BROOME AIRPORT,-17.9475,122.2352
003004,CAPE LEVEQUE,-16.3961,122.9278
003005,FAIRFIELD STATION,-17.5725,125.0675
003006,FITZROY CROSSING COMP.,-18.1919,125.5644
003007,DERBY POST OFFICE,-17.3044,123.6292
003008,ELLENDALE,-17.9281,124.8108
003009,JUBILEE DOWNS,-18.3547,125.3033
003010,KIMBERLEY DOWNS,-17.3927,124.3574
003011,LEOPOLD DOWNS,-17.7535,125.3807
003012,LIVERINGA UPPER,-18.0483,124.1728
003013,LULUIGUI,-18.145,124.0275
003014,GOGO STATION,-18.2914,125.5869
003015,MEDA,-17.368,123.9956
003016,MOUNT ANDERSON,-18.0358,123.9286
003017,MOUNT HOUSE STATION,-17.0516,125.7051
003018,MYROODAH,-18.1225,124.2692
003019,NAPIER DOWNS,-17.3305,124.8166
003020,NERRIMA,-18.4922,124.3992
003021,NOONKANBAH,-18.4875,124.8231
003022,QUANBUN DOWNS,-18.3817,125.2267
003023,ROEBUCK PLAINS,-17.9315,122.4722
003024,UDIALLA,-17.9464,123.7383
003025,COCKATOO ISLAND,-16.0992,123.6161
003026,YEEDA,-17.6153,123.6483
003027,FOSSIL DOWNS,-18.1386,125.7764
003028,ANNA PLAINS,-19.2536,121.4861
003029,FRAZIER DOWNS,-18.7983,121.7125
003030,BIDYADANGA,-18.6844,121.7803
003031,LOMBADINA MISSION,-16.5167,122.8908
003032,DERBY AERO,-17.3706,123.6611
003033,BLINA,-17.7472,124.5283
003034,ECO BEACH,-18.3381,122.0758
003035,MUNJA,-16.4,124.95
003036,BROOME QUARANTINE STATION,-18.0,122.2167
003037,MUNKAYARRA,-17.4333,123.75
003038,LIVERINGA 2,-17.95,124.1667
003039,SILENT GROVE,-16.9667,125.3
003040,CAMBALLIN,-17.9903,124.1922
003041,KILTO STATION,-17.6924,122.7127
003042,TALGARNO,-19.2833,121.5
003043,CHRISTMAS CREEK HOMESTEAD,-18.8772,125.9207
003044,BROOKING SPRINGS,-18.1103,125.6431
003045,CALANGADIE,-19.1,121.5
003046,CHERRABUN,-18.4833,125.3333
003047,DAMPIER DOWNS,-18.4,123.1
003048,CHERRABUN,-18.9159,125.5264
003049,ISADELL DOWNS,-16.9,125.7
003050,LIVERINGA LOWER,-17.95,124.1667
003051,MOUNT BARNETT,-16.7372,125.9086
003052,MOUNT HART STATION,-16.8214,124.9151
003053,OBAGAMA,-16.7,123.9833
003054,POINT TORMENT,-17.1,123.7
003055,ROLLAH,-18.7,121.75
003056,THANGOO,-18.1792,122.3583
003057,CYGNET BAY,-16.4513,123.0087
003058,MILLAJIDDIE,-18.8333,124.95
003059,NITA DOWNS,-19.0861,121.6764
003060,ARDJORIE,-18.7667,123.6833
003061,KIMBOLTON RANGE STATION 1,-16.695,123.8625
003062,BEVERLEY SP,-16.5833,125.4833
003063,CHARNLEY RIVER,-16.7164,125.46
003064,FITZROY A.I.M,-18.1667,125.5833
003065,KALYEEDA,-18.55,124.7167
003066,PORT SMITH,-18.5175,121.8072
003067,GLAROSA POULTRY LODGE,-17.3333,123.6833
003068,DAMPIER DOWNS,-18.5077,123.4561
003069,KOOLAN ISLAND,-16.1306,123.7764
003070,OOBAGOOMA,-16.7667,123.9833
003071,NOONKANBAH AIRSTRIP,-18.5,124.8333
003072,ONE ARM POINT,-16.4508,123.0653
003073,KIMBOLTON,-16.6872,123.8375
003074,YAKKAMUNGA,-17.9343,123.4736
003075,DERBY MAIN ROADS,-17.3136,123.6497
003076,WESTERN FIELD,-19.3283,125.3886
003077,MOWLA BLUFF,-18.5914,123.6133
003078,CADJEBUT,-18.7267,125.9875
003079,SHELAMAR,-18.9897,121.7208
003080,CURTIN AERO,-17.5769,123.8297
003081,CURTIN,-17.5778,123.8222
003082,KIRBY GARDENS,-17.8672,122.3631
003083,BROOME BIRD OBSERVATORY,-17.9769,122.3431
003084,DERBY (MANNING RD),-17.3436,123.6781
003085,MOUNT JOWLAENGA,-17.4311,123.0389
003086,WILLARE BRIDGE,-17.7278,123.6547
003087,TANJUNGPANDAN,-17.5606,122.1458
003088,LARRAWA,-18.8375,126.5247
003089,BROOME COMPARISON,-17.9492,122.2339
003090,DEBESA,-17.7981,124.0772
003091,BEEFWOOD PARK,-18.9894,125.8478
003092,SOUTH EAST WATERBANK,-17.8578,122.2725
003093,FITZROY CROSSING AERO,-18.1814,125.5619
003094,WINDJANA GORGE,-17.4211,124.9246
003095,PILLARA SPRINGS,-18.3192,125.7806
003097,BEVERLEY SPRINGS AIRSTRIP,-16.73,125.4386
003098,MOUNT HOUSE AIRSTRIP,-17.0535,125.712
003099,LEOPOLD DOWNS TBRG,-17.7535,125.3807
003100,LIVERINGA STATION,-17.9503,124.2653
003101,DAMPIER DOWNS AIRSTRIP,-18.5096,123.4676
003102,BROOME WHARF NTC AWS,-18.0019,122.2162
003103,MIDDLE LAGOON,-16.7742,122.5762
003104,BIDAN,-17.645,123.1678
003105,LAUREL DOWNS,-18.1105,125.3347
003106,ELLENDALE MINESITE,-17.5669,124.8411
003107,SILVER GULL CREEK,-16.1903,123.7025
003108,YAMPI SOUND (DEFENCE),-16.7671,123.981
003109,BROOME NTC AWS COMPARISON,-18.0008,122.2183
003111,BROOME AIRPORT (AUTO EVAP),-17.9475,122.2352
003112,BROOME WHARF NTC AWS,-18.0018,122.2166
004000,ABYDOS,-21.4167,118.9333
004001,WOODBROOK,-20.9,117.1167
004002,PORT HEDLAND POST OFFICE,-20.3139,118.5742
004003,BALFOUR DOWNS,-22.8,120.8625
004004,BAMBOO CREEK,-20.9264,120.2075
004005,BAMBOO SPRINGS,-22.0517,119.6325
004006,BONNEY DOWNS,-22.1828,119.935
004007,BOODARIE,-20.4,118.4667
004008,CARLINDIE,-20.6392,119.2431
004009,COONGAN STATION,-20.6833,119.6667
004010,COOYA POOYA,-21.0333,117.1333
004011,CORUNNA DOWNS,-21.4667,119.8333
004012,DE GREY,-20.1756,119.1908
004013,ETTRICK,-20.5167,119.6667
004014,EGINBAH,-20.85,119.7667
004015,HILLSIDE STATION,-21.7219,119.3989
004016,INDEE,-20.7867,118.5972
004017,STATION PEAK,-21.15,118.1
004018,LIMESTONE,-21.1833,119.8167
004019,MANDORA,-19.7419,120.8433
004020,MARBLE BAR COMPARISON,-21.1756,119.7497
004021,MOUNT EDGAR,-21.3122,120.0586
004022,MUCCAN,-20.6334,120.0863
004023,MULYIE,-20.4619,119.5189
004024,MUNDABULLANGANA,-20.5192,118.0603
004025,NIMINGARRA,-20.5,119.8
004026,NOREENA DOWNS,-22.2914,120.1761
004027,NULLAGINE,-21.8861,120.1103
004028,PARDOO STATION,-20.1078,119.5811
004029,COORAGOORA,-19.9604,120.2744
004030,PILGA,-21.4,119.4
004031,POINT SAMSON,-20.6267,117.1925
004032,PORT HEDLAND AIRPORT,-20.3725,118.6317
004033,PYRAMID STATION,-21.0561,117.4436
004034,RPF 734 MILE,-22.0167,121.4
004035,ROEBOURNE,-20.7767,117.1456
004036,STRELLEY,-20.4681,119.0556
004037,TALGA TALGA,-21.05,120.0
004038,WALLAREENYA,-20.7483,118.8172
004039,WARAMBIE,-20.9484,117.3732
004040,WARRALONG,-20.6472,119.5869
004041,WARRAWAGINE,-20.8508,120.6961
004042,WHIM CREEK,-20.8414,117.8353
004043,REDMONT,-21.9931,119.0131
004044,WIDJUP OUTCAMP,-19.5,121.3
004045,ABYDOS WOODSTOCK,-21.62,118.955
004046,YARRIE,-20.6739,120.2044
004047,TABBA TABBA,-20.8333,118.9
004048,YANDEEARRA,-21.2853,118.4042
004049,SPLIT ROCK,-21.6,119.6
004050,YALGOORA,-21.6,119.7
004051,BALLA BALLA,-20.6,117.8
004052,RPF 80 MILE,-20.5667,120.65
004053,CONDON,-20.0,119.4
004054,COSSACK,-20.6783,117.1892
004055,CROYDON,-21.1,117.8
004056,KANGAN,-21.1,118.5167
004057,LALLA ROOKH,-20.8833,119.15
004058,LOCHNAVAR,-20.7,121.0167
004059,MALLINA,-20.8822,118.0308
004060,MIDDLE CREEK,-21.8,120.3
004061,MOUNT SATIRIST,-21.1,117.9833
004062,MYADEE,-20.1,119.75
004063,POONDAWINDIE,-22.2,120.2
004064,POONDINIA,-20.45,118.8
004065,RPF 672 MILE,-22.7,121.1
004066,RPF 798 MILE,-21.2,121.2
004067,SHAW RIVER,-20.55,119.3
004068,WALLAL DOWNS,-19.7789,120.6417
004069,WARRAWOONA,-21.3,119.8
004070,COONGAN HOTEL,-20.9,119.7
004071,PYRAMID 1,-21.05,117.45
004072,ROSEMARY ISLAND,-20.4833,116.5333
004073,NICOL PADDOCK,-20.9,116.9167
004074,GOLDSWORTHY,-20.3422,119.5206
004075,HARDING RIVER 1,-21.1389,117.085
004076,HARDING RIVER 2,-21.175,117.2208
004077,BARRAMINE,-20.7167,120.85
004078,COONGAN 2,-20.7,119.35
004079,YANDEE,-21.3625,118.8783
004080,CALLAWA,-20.635,120.5
004081,CORUNNA DOWNS AIRSTRIP,-21.4333,119.7833
004082,CAPE LAMBERT,-20.615,117.1633
004083,KARRATHA AERO,-20.7097,116.7742
004084,SHAY GAP,-20.4958,120.1672
004085,TAMBOURAH,-21.75,119.1833
004086,SHERLOCK,-20.8956,117.6447
004087,HARDING RIVER 3,-21.2333,117.05
004088,NORTH POLE,-21.1467,119.4333
004089,WICKHAM,-20.6744,117.1428
004090,ROEBOURNE AERO,-20.7594,117.1583
004091,KING BAY SUPPLY BASE,-20.5978,116.7764
004092,HARDING DAM,-20.9786,117.0953
004093,STRELLEY PUMPING STATION,-20.3292,119.1878
004094,NIMINGARRA MINE,-20.4119,120.0103
004095,LEGENDRE ISLAND,-20.3583,116.8431
004096,MOUNT DIVIDE,-22.4272,120.8578
004097,DAMPIER PORT,-20.6175,116.7517
004098,DE GREY BOREFIELD,-20.2906,119.28
004099,KARRATHA TOWN,-20.7381,116.8489
004100,BEDOUT ISLAND,-19.5894,119.1
004101,R 1 BOREHOLE,-20.3167,119.3333
004102,MEENTHEENA,-21.2669,120.4544
004103,NIFTY COPPER MINE,-21.6525,121.5592
004104,PORT HEDLAND MILOS AWS COMPARISON,-20.3736,118.6297
004105,NULLAGINE NORTH,-21.8603,120.1592
004106,MARBLE BAR,-21.1756,119.7497
004109,PORT HEDLAND AIRPORT (AUTO EVAP),-20.3725,118.6317
005000,BOOLALOO,-22.5833,115.85
005001,COOLAWANYAH,-21.8047,117.8056
005002,DUCK CREEK,-22.515,116.5825
005003,ETHEL CREEK,-22.8972,120.1733
005004,EXMOUTH GULF,-22.3761,114.1105
005005,HAMERSLEY,-22.2794,117.6775
005006,KOOLINE,-22.9119,116.2903
005007,LEARMONTH AIRPORT,-22.2406,114.0967
005008,MARDIE,-21.1906,115.9797
005009,MARILLANA,-22.6331,119.4081
005010,MARRILLA,-22.9742,114.4597
005011,MEILGA,-22.7,115.8
005012,MILLSTREAM,-21.5906,117.0656
005013,MINDEROO,-21.9969,115.0463
005014,MOUNT FLORANCE,-21.7869,117.8647
005015,MULGA DOWNS,-22.1039,118.4703
005016,ONSLOW,-21.6364,115.1117
005017,ONSLOW AIRPORT,-21.6688,115.1093
005018,PEEDAMULLAH,-21.85,115.6167
005019,WARRAMBOO,-21.6333,115.85
005020,NINGALOO,-22.6975,113.6744
005021,RANGE,-22.2667,115.4167
005022,RED HILL,-21.975,116.0653
005023,ROY HILL,-22.6217,119.9564
005024,VLAMINGH HEAD,-21.8067,114.1072
005025,WARRIE,-22.4,119.5333
005026,WITTENOOM,-22.2425,118.3358
005027,WITTENOOM GORGE,-22.3167,118.3167
005028,WYLOO,-22.6906,116.2328
005029,YALLEEN,-21.6767,116.3928
005030,YANREY,-22.5064,114.7944
005031,YARDIE CREEK,-21.8875,114.0092
005032,YARRALOOLA HOMESTEAD,-21.5703,115.8786
005033,KOORDARRIE,-22.3419,114.9319
005034,MOUNT STUART,-22.4558,116.0508
005035,TAMBREY,-21.6,117.6
005036,GLEN FLORRIE STATION,-22.9367,115.9825
005037,KANGIANGI,-21.7,117.45
005038,CHINGINARRA,-21.3667,115.85
005039,LEARMONTH ARTESIAN,-22.6,114.4
005040,BALMORAL,-21.1594,116.1197
005041,COORARA STATION,-22.6,116.1
005042,DEEPDALE 1,-21.7,116.1
005043,DIOMENOR,-21.9,115.2
005044,FORTESCUE,-21.0583,116.1111
005045,GIRALIA,-22.685,114.3673
005046,HARDY JUNCTION,-22.7,116.1
005047,KERDIADARY,-22.25,119.1
005048,NANUTARRA,-22.5403,115.4981
005049,TABLELAND,-21.6,117.6
005050,MOUNT ENID,-21.6,116.4
005051,EXMOUTH TOWN,-21.9303,114.126
005052,KARRATHA STATION,-20.8831,116.6725
005053,EAST INTERCOURSE ISLAND,-20.6553,116.6789
005054,DEVILS BROOK,-20.8667,116.45
005055,WITTENOOM AERO,-22.2275,118.345
005056,BLACK HILLS,-21.2333,117.05
005057,HARDING RIVER,-21.3417,117.0833
005058,BARROW ISLAND,-20.8206,115.3931
005059,MOUNT LIONEL AIRSTRIP,-22.6087,117.6313
005060,NAVY CHARLIE,-22.3333,114.05
005061,DAMPIER SALT,-20.7278,116.7483
005062,JAMINU OUTCAMP,-22.3167,115.1833
005063,MOUNT BROCKMAN,-22.3,117.2833
005064,SAND HILL,-22.7825,119.6172
005065,MONTE BELLO ISLANDS,-20.4167,115.55
005066,UAROO,-22.7814,115.3722
005067,CANE RIVER,-22.0894,115.6239
005068,BULLARA,-22.6811,114.0394
005069,PANNAWONICA,-21.6392,116.3308
005070,ROBE,-21.3567,115.8208
005071,PINDRAL OUTCAMP,-21.3444,115.9356
005072,TOM PRICE,-22.6967,117.7703
005073,HOOLEY,-21.8836,118.2217
005074,MARANDOO,-22.6344,118.1119
005075,NAVY ALPHA,-21.8222,114.1714
005076,TOM PRICE AERO,-22.745,117.6656
005077,EXMOUTH EMERGENCY SERVICE,-21.9325,114.1111
005078,URALA,-21.7666,114.8211
005079,THEVENARD ISLAND,-21.4625,115.0194
005080,CAPE RANGE,-22.1033,113.9997
005081,DAMPIER RADAR,-20.6544,116.6822
005082,ERAMURRA POOL,-21.0544,116.2575
005083,KARRATHA WATER RESOURCES,-20.7692,116.8603
005085,ROCKLEA,-22.8853,117.4464
005086,FORTESCUE ROAD HOUSE,-21.2947,116.1383
005087,MILLSTREAM CWS PUMPING STATION,-21.5833,117.05
005088,MULYERING,-21.2475,116.0733
005089,PACKSADDLE CAMP,-22.9003,118.7031
005090,MOUNT MINNIE,-21.9711,115.4324
005091,DAMPIER  H.I.,-20.6561,116.7233
005092,LEARMONTH MILOS AWS COMPARISON,-22.2367,114.0869
005093,AUSKI MUNJINA ROADHOUSE,-22.3767,118.6886
005094,BARROW ISLAND AIRPORT,-20.874,115.4066
005095,CHEELA PLAINS,-22.9367,116.9731
005096,POINT MURAT NAVY PIER,-21.8167,114.191
005097,LEARMONTH SOLAR OBSERVATORY,-22.2183,114.1031
005098,KARIJINI NORTH,-22.2999,118.4498
005101,KARRATHA RADAR,-20.9924,116.8758
005102,LEARMONTH AIRPORT (AUTO EVAP),-22.2406,114.0967
006000,BIDGEMIA,-25.0417,115.3092
006001,BILLABALONG,-27.4231,115.8347
006002,BINTHALYA,-24.685,114.8358
006003,BOOLATHANA,-24.6525,113.6936
006004,BOOLOGOORO,-24.3333,114.0242
006005,BRICKHOUSE,-24.8208,113.7853
006006,BULLARDOO,-27.855,115.6733
006007,TALISKER,-26.2739,115.2578
006008,CALLAGIDDY STATION,-25.0481,114.0294
006009,CARDABIA,-23.1044,113.8038
006010,CAREY DOWNS,-25.6114,115.4625
006011,CARNARVON AIRPORT,-24.8878,113.67
006012,CARRARANG,-26.4628,113.505
006013,COBURN STATION,-26.6972,114.3181
006014,COOKERABINGIE,-23.5,114.1
006015,COORALYA,-24.4453,114.0779
006016,CORDALIA,-23.3,114.7
006017,DAIRY CREEK,-25.2786,115.8633
006018,DIRK HARTOG ISLAND,-26.0333,113.2167
006019,DOORAWARRAH,-24.806,114.431
006020,EDAGGEE,-25.36,114.2292
006021,EUDAMULLAH,-24.4508,115.6072
006022,GASCOYNE JUNCTION,-25.0544,115.21
006023,GNARALOO,-23.8222,113.5256
006024,GOOMBARDIE,-24.6667,114.35
006025,HAMELIN POOL,-26.3994,114.1658
006026,HAMELIN STATION,-26.4278,114.1916
006027,JIMBA JIMBA,-25.0442,115.1331
006028,THE OVERLANDER,-26.4,114.4667
006029,LYNDON,-23.6361,115.2461
006030,LYONS RIVER,-24.6314,115.3383
006031,MANGAROON,-23.915,115.6183
006032,MARDATHUNA,-24.4733,114.5553
006033,MAROONAH,-23.4796,115.5478
006034,MARRON,-25.3656,114.3594
006035,MEADOW STATION,-26.7025,114.6183
006036,MEEDO,-25.6631,114.6261
006037,MERLINLEIGH,-24.3142,115.1892
006038,MIA MIA,-23.3817,114.4375
006039,MINILYA,-23.8497,113.9714
006040,MINNIE CREEK,-24.0306,115.6967
006041,MOOGOOREE,-24.0633,115.205
006042,MOUNT SANDIMAN,-24.4117,115.3958
006043,NEW FOREST,-27.37,115.6517
006044,DENHAM,-25.9265,113.5325
006045,TAMALA,-26.6969,113.7158
006046,TOWERA,-23.1747,115.1194
006047,TOWRANA,-25.405,115.2267
006048,TWIN PEAKS,-27.3853,115.9664
006049,WAIL,-27.1,115.5
006050,WANDAGEE,-23.7647,114.5539
006051,WANDINA,-27.9864,115.6306
006052,WILLIAMBURY,-23.8608,115.1475
006053,WINDERIE,-25.3021,115.1164
006054,WOODLEIGH,-26.0511,114.7542
006055,WOOLGORONG,-27.7456,115.8286
006056,WOORAMEL,-25.74,114.2847
006057,YALBALGO,-25.1883,114.68
006058,YALLALONG,-27.4278,115.5147
006059,YARINGA STATION,-25.9436,114.3222
006060,CARBLA STATION,-26.2011,114.2869
006061,MEERAGOOLIA,-24.9017,114.2164
006062,CARNARVON POST OFFICE,-24.8858,113.6565
006063,COOLCALALYA,-27.5167,115.05
006064,MOOGOOREE O.S.,-24.2167,115.3833
006065,PLEAIDES,-23.4,114.7
006066,WINNING,-23.1567,114.5403
006067,MIA MIA 2 SUB BORE,-23.5,114.0167
006068,WAHROONGA,-25.4906,114.3981
006069,MOUNT NARRYER,-26.5903,115.9267
006070,HILL SPRINGS,-24.3058,114.5003
006071,MUGGON,-26.6167,115.5467
006072,EMU CREEK STATION,-23.0314,115.0414
006073,BERNIER ISLAND,-24.8333,113.3
006074,MILLIE MILLIE,-24.8667,114.5833
006075,BOODALIA,-25.2,113.9
006076,BOOLAGOORDA,-26.3,114.25
006077,BOUNDARY STORE,-25.3,115.6
006078,CALLATHARRA,-25.8,115.1
006079,ELLA VALLA,-25.0881,114.3836
006080,NANGA,-26.2564,113.8064
006081,NILEMAH,-26.4,114.05
006082,POINT CHARLES,-24.5,113.5
006083,SHAWS TANK,-24.3,113.8
006084,WARROORA,-23.4836,113.7926
006085,YALOBIA,-24.2,114.1
006086,MINGENEW WELL,-25.2333,115.6333
006087,BRICKHOUSE WOOLSHED,-24.8167,113.8333
006088,COORALYA O.S.,-24.4333,114.2667
006089,CAPE FARQUHAR,-23.6333,113.6167
006090,MEEBERRIE,-26.96,115.9733
006091,MEARABUNDIE,-25.9667,115.9833
006092,BILLABONG ASA,-26.8156,114.6133
006093,MINILYA BRIDGE,-23.81,114.0083
006094,CAPE CUVIER,-24.2167,113.3833
006095,QUOBBA,-24.3967,113.4056
006096,DOORAWARRAH O.S.,-25.0167,114.2833
006097,USELESS LOOP,-26.1203,113.3975
006098,WEEDARRAH,-25.028,115.862
006099,MURCHISON,-26.8956,115.9567
006100,COOLCALALAYA,-27.525,115.0569
006101,YALARDY,-26.0983,115.2444
006102,STEEP POINT,-26.1764,113.2149
006103,MIDDALYA,-23.9064,114.7681
006104,MINNIE CREEK AIRSTRIP,-24.0297,115.6894
006105,SHARK BAY AIRPORT,-25.8925,113.5772
006106,MOOLOO DOWNS,-25.037,115.994
006107,FAR END PLANTATION,-24.8128,113.7925
006108,CAPE CUVIER WHARF,-24.2201,113.3975
006109,GNARALOO - 3 MILE CAMP,-23.8761,113.4972
006110,RED BLUFF,-24.0305,113.4509
006111,WINDERIE AIRSTRIP,-25.3097,115.145
006112,LYONS RIVER AIRSTRIP,-24.62,115.3347
006113,BULLARDOO TBRG,-27.8556,115.6716
006115,CARDABIA EAST,-23.1289,114.0506
007000,BARNONG,-28.6294,116.2814
007001,BEEBYN,-26.9683,117.9031
007002,BELELE,-26.3611,118.0283
007003,BERINGARRA,-26.0417,116.9528
007004,BIG BELL,-27.35,117.6667
007005,BOODANOO,-28.3,117.9
007006,BOOGARDIE,-28.0411,117.6703
007007,BOOLARDY,-26.9839,116.5353
007008,BRYAH,-25.5059,118.7983
007009,BULLARA,-27.4833,117.3
007010,BUNNAWARRA,-28.6058,116.5719
007011,BURNERBINMAH,-28.7839,117.3625
007012,BUTTAH,-26.1297,118.4853
007013,COGLA DOWNS NATTE,-27.25,118.3333
007014,COODARDY,-27.2528,117.6522
007015,COODARDY YENTON,-27.3,117.25
007016,COODINGNOW,-29.3667,117.7
007017,CUE,-27.425,117.8936
007018,CULLCULLI,-27.0392,118.365
007019,BULLOO DOWNS,-24.0019,119.5725
007020,ANNEAN,-26.8764,118.1731
007021,AUSTIN DOWNS,-27.3839,117.7453
007022,DAY DAWN,-27.4667,117.85
007023,DOOLGUNNA,-25.6864,119.2258
007024,EDAH,-28.2731,117.1544
007025,WANNA,-23.9214,116.5594
007026,FOUR CORNERS,-26.45,118.2
007027,GABYON,-28.2494,116.34
007028,WANNA,-24.0469,116.2181
007029,GLENBURGH,-25.4333,116.1167
007030,JUDAL STATION,-26.1142,117.5047
007031,HILLVIEW,-26.9033,118.8361
007032,ILLGIDDY,-27.6292,117.4867
007033,ILLGARARIE,-24.3444,119.5808
007034,JINGEMARRA,-27.7444,116.7439
007035,KALLI,-26.8936,117.1211
007036,KILLARA,-26.3475,118.9583
007037,KIRKALOCKA,-28.5564,117.7803
007038,KOONMARRA,-26.275,117.7842
007039,LAKE AUSTIN,-27.6,117.9
007040,LAKESIDE,-27.5958,117.75
007041,LANDOR,-25.1303,116.9047
007042,MADOONGA,-26.9367,117.5928
007043,MANFRED,-26.4458,116.5467
007044,MARLOO,-28.3,116.2
007045,MEEKATHARRA AIRPORT,-26.6136,118.5372
007046,MEEKATHARRA POST OFFICE,-26.5933,118.4883
007047,MEELINE STATION,-28.4467,118.2678
007048,MEKA STATION,-27.4222,116.825
007049,MILEURA,-26.3736,117.3339
007050,MILGUN,-25.0942,118.2983
007051,MINGAH,-24.95,118.7133
007052,MOORARIE,-25.9214,117.6
007053,MOUNT AUGUSTUS,-24.3086,116.9111
007054,MOUNT FARMER,-27.8794,117.5506
007055,MOUNT GOULD,-25.8058,117.3905
007056,MOUNT JAMES,-24.8567,116.895
007057,MOUNT MAGNET,-28.0617,117.8506
007058,MOUNT PHILLIP,-24.4,116.3078
007059,MOUNT VERNON,-24.2297,118.2408
007060,MOUNT WITTENOOM,-27.4189,116.6897
007061,MULGUL,-24.8333,118.4717
007062,MUNDIWINDI,-23.7942,120.2442
007063,MURALGARRA,-28.5253,117.0344
007064,MURGOO,-27.3636,116.4261
007065,NALBARRA,-28.6519,117.6083
007066,NANNINE,-26.9,118.4
007067,NARNDEE,-28.9467,118.1857
007068,NINGHAN STATION,-29.425,117.2906
007069,NOONGAL,-28.1233,116.8294
007070,PEAK HILL,-25.6381,118.7131
007071,PINDATHUNA,-28.0531,116.6514
007072,PULLAGAROO,-29.1886,117.9222
007073,RPF 126 MILE,-29.55,118.5
007074,DROMEDARY HILLS,-29.0167,118.45
007075,RPF 180 MILE,-26.85,118.7
007076,RPF 206 MILE,-27.95,118.6
007077,REEDY,-27.15,118.25
007078,SHERWOOD,-26.5593,118.5423
007079,SYLVANIA,-23.5867,120.0517
007080,THREE RIVERS,-25.1256,119.1514
007081,THUNDELARRA,-28.8928,117.1333
007082,TUCKANARRA,-27.1192,118.0842
007083,TUREE CREEK,-23.6239,118.6561
007084,ULLAWARRA,-23.48,116.1108
007085,WANARIE,-27.8336,117.8792
007086,WANDARY,-25.7,118.0
007087,WINDSOR,-28.0097,118.5753
007088,WOOGALONG,-27.8058,116.5692
007089,WOOLEEN,-27.0878,116.1606
007090,WYDGEE,-28.8439,117.8311
007091,YALGOO,-28.3386,116.6825
007092,YANDIL,-26.3608,119.8233
007093,YARLERWEELOR,-25.5786,117.9933
007094,YINNETHARRA,-24.651,116.165
007095,YOWERAGABBIE,-28.2322,117.6556
007096,YUIN,-27.9808,116.0347
007097,WONDINONG,-27.8608,118.4183
007098,COONATHAGO O.S.,-28.8,117.6
007099,YARRABUBBA,-27.1308,118.7803
007100,MOUNT PADBURY,-25.6933,118.0803
007101,MUNARRA,-26.2822,118.6933
007102,MURRAMUNDA,-23.5,120.5
007103,NEDS CREEK,-25.48,119.6492
007104,PINGANDY,-23.9958,117.5225
007105,WOODLANDS,-24.8083,118.1105
007106,WURARGA,-28.415,116.2833
007107,NOONDIE 2,-27.1178,117.1175
007108,WINDIMURRA,-28.325,118.545
007109,PAYNES FIND,-29.25,117.6667
007110,LENNONVILLE,-27.95,117.8667
007111,COBRA STATION,-24.2008,116.475
007112,BUNGALOW,-26.0667,118.6667
007113,ERRIVILLA,-25.3333,117.25
007114,WEARAGAMINDA,-28.4833,116.55
007115,WOOLARA,-28.0,118.0
007116,RPF 375,-26.4,119.8
007117,YARRA YARRA,-26.1667,116.25
007118,ABBOTTS,-26.4,118.4
007119,ASHBURTON DOWNS,-23.3856,117.0322
007120,BADGA,-28.6,116.8
007121,BALD HILL,-24.7,119.75
007122,BUNGAR,-29.45,118.45
007123,COGLA DOWNS,-27.4375,118.9292
007124,DALGETY DOWNS,-25.2806,116.2083
007125,FIELDS FIND,-29.0,117.3
007126,GULLEWA POST OFFICE,-28.7,116.3
007127,GULLEWA HOUSE,-28.6,116.3
007128,GUM CREEK,-26.9,119.25
007129,MELANGATA,-27.8036,116.8857
007130,MILLY MILLY,-26.0747,116.6942
007131,MINDOOLAH,-26.95,117.5
007132,MOUNT CLERE,-25.0964,117.5922
007133,MOUNT EDGERTON,-24.95,117.75
007134,MURCHISON DOWNS,-26.795,118.9842
007135,MURRUM STATION,-28.2747,117.3919
007136,LAKE VIEW DOWNS,-27.2,118.0
007137,NOOKAWARRA,-26.3028,116.8789
007138,NICHOLSON DOWNS,-27.1,117.1
007139,PAYNES FIND,-29.2708,117.6836
007140,RPF TWO 64 MILE,-27.65,117.6
007141,ROTHESAY,-29.3,116.9
007142,CASHMANS,-25.9697,118.6233
007143,WAGGA WAGGA,-28.5,116.5
007144,WARRIDAH,-29.0,117.0
007145,WARRIEDAR,-29.1,117.0
007146,WOGARNO,-28.3831,117.6817
007147,YARRAQUIN,-27.55,118.0167
007148,YEDDERADDA,-26.25,116.6
007149,MEEKATHARRA,-26.5942,118.4883
007150,MURRALEE,-27.6467,117.8592
007151,NEWMAN,-23.3683,119.7314
007152,KUMARINA,-24.75,119.6056
007153,PRAIRIE DOWNS,-23.5531,119.1478
007154,WYNYANGOO,-27.9369,118.1889
007155,KARALUNDI,-26.1317,118.6833
007156,TARDIE STATION,-27.9578,116.3383
007157,DALGARANGA,-27.7744,117.0156
007158,INGLEWOOD,-27.6167,118.9333
007159,YARRAQUIN,-27.5481,118.2182
007160,PAROO,-26.2628,119.7639
007161,ERRABIDDY,-25.4628,117.1364
007162,MOUNT SEABROOK,-25.5986,117.7325
007163,OLD MOUNT PADBURY,-25.6833,118.1
007164,EDMUND,-23.7633,116.1206
007165,MINGAH SPRINGS,-24.9483,118.7147
007166,JOHARDO,-28.35,116.55
007167,RPF TWO 115 MILE,-28.15,116.6167
007168,OUDABUNNA,-29.0675,117.7572
007169,RHODES RIDGE,-23.1017,119.3678
007170,YIRRIGULLY,-23.2167,116.5
007171,RPF 40 MILE,-28.5167,116.6333
007172,MINDEROO,-23.4,119.7833
007173,GNOWS NEST,-28.5833,116.8667
007174,GOLDEN GROVE,-28.7,116.9333
007175,GARDEN GULLY,-26.4667,118.4667
007176,NEWMAN AERO,-23.4212,119.8015
007177,MININER,-23.6042,117.6892
007178,PARABURDOO,-23.2028,117.6692
007179,TANGADEE,-24.4114,118.9408
007180,MARYMIA,-25.0386,120.0064
007181,WEELARRANA,-22.9789,120.01
007182,MOUNT PUCKFORD,-25.1333,116.4833
007183,SPRING CAMP,-24.9,116.55
007184,MOUNT MAGNET AERO,-28.1183,117.83
007185,PARABURDOO AERO,-23.1726,117.7493
007186,ERONG,-25.565,116.6653
007187,MOOLA EAST,-28.2,118.0333
007188,MILGOO PEAK,-28.85,118.1333
007189,DIAMOND WELL,-26.19,119.5317
007190,MARANALGO,-29.3892,117.8297
007191,CAPRICORN ROADHOUSE,-23.4531,119.7994
007192,NALLAN,-27.3158,117.9719
007193,GLEN STATION,-27.0497,117.65
007194,YOUNO DOWNS,-27.0722,119.2522
007195,BYRO,-26.0794,116.1539
007196,YUNDA STATION,-25.7361,116.9181
007197,CHALLA,-28.2813,118.3106
007198,EAROO,-29.5,118.5
007199,PLUTONIC (PLANT SITE),-25.3106,119.4481
007200,REEDY,-27.1242,118.2714
007201,WALDBURG,-24.7428,117.3583
007202,GABANINTHA,-26.9183,118.6406
007203,PINDABUNNA,-29.3353,118.1022
007204,MEEKATHARRA MILOS AWS COMPARISON,-26.6131,118.5367
007205,MOUNT AUGUSTUS RESORT,-24.3075,116.9094
007206,BURRINGURRAH,-24.6522,116.9281
007207,LANDOR AIRSTRIP,-25.1283,116.9369
007208,MOUNT AUGUSTUS AIRSTRIP,-24.3075,116.9094
007209,COBRA AIRSTRIP,-24.1994,116.4814
007210,BURRINGURRAH AIRSTRIP,-24.6347,116.9472
007211,DALGETY DOWNS AIRSTRIP,-25.2694,116.2211
007212,GINGINJIBBY,-24.6141,117.653
007300,TEN SIXTY SIX,-24.1847,119.7175
007301,MEEKATHARRA AIRPORT (AUTO EVAP),-26.6136,118.5372
007500,INNOUENDY,-25.6939,116.5381
007501,NARLOO,-27.8764,116.2616
007502,GREENOUGH RVR TBRG @ YUIN,-27.9791,116.0348
007600,MOUNT MAGNET AERO,-28.1156,117.8425
008000,AJANA,-27.9607,114.6336
008001,BALLA,-28.0603,114.9461
008002,BALLIDU,-30.5967,116.7714
008003,BALLIDU EAST,-30.5922,116.9194
008004,BALLINE,-28.0058,114.2206
008005,BARBERTON,-30.7294,116.02
008006,BELLARANGA,-29.3333,115.5
008007,PINDAWA,-28.8956,115.8106
008008,BERKSHIRE VALLEY,-30.5831,116.135
008009,BINDI BINDI EAST,-30.6286,116.3861
008010,BINNU,-28.0422,114.6737
008011,BLUFF POINT,-28.755,114.6133
008012,BOWES,-28.38,114.6706
008013,BOWGADA,-29.3303,116.1433
008014,DALWALLINU NORTH,-30.2192,116.7783
008015,BUNJIL,-29.575,116.4967
008016,GLENFERRIE,-30.445,117.0406
008017,BUNTINE,-29.9869,116.5711
008018,BUNTINE EAST,-29.9331,116.7697
008019,BUNYA BUNYA,-28.4375,115.1783
008020,SHELLEYVALE,-28.9822,116.1683
008021,SUNNYDALE,-30.0425,116.6981
008022,BALGERBINE,-30.2911,116.3306
008023,CANNA 1,-28.9,115.85
008024,CANNA 2,-28.9,115.9
008025,CARNAMAH,-29.6883,115.8857
008026,CARON,-29.5833,116.3167
008027,PINDAR CHALLYMENDA,-28.5167,115.8
008028,NABAWA,-28.5008,114.7897
008029,TIBRADDEN,-28.7517,114.9017
008030,CHAPMAN EAST,-28.6,114.8
008031,CLARE HILL,-28.4,114.8
008032,BALMAHA,-29.0975,116.15
008033,CLONTARF FARM,-28.7031,115.8172
008034,COOARRA,-30.3,116.8
008035,COOLANGATTA (1),-28.9,115.5
008036,COOMBERDALE,-30.4644,116.0372
008037,COOROW,-29.8811,116.0248
008038,MOORA WEST,-30.6392,115.9883
008039,DALWALLINU COMPARISON,-30.2772,116.6619
008040,DAMBORING,-30.2167,116.7
008041,DARTMOOR,-27.9775,115.2103
008042,YAMMA,-28.09,115.145
008043,DINGLEY DELL,-29.0,116.0
008044,DONGARA,-29.2528,114.9306
008045,DURAWAH,-28.55,114.9
008046,DUNOLLY,-30.9133,116.8092
008047,FAIRFIELD,-29.4711,115.8525
008048,KARINGA,-29.3,116.2
008049,GEORGINA,-28.8833,114.75
008050,GERALDTON TOWN,-28.7769,114.605
008051,GERALDTON AIRPORT COMPARISON,-28.7953,114.6975
008052,GLENEVA,-28.17,114.7614
008053,GLENMORE,-30.75,116.7
008054,GLENVAR,-30.7989,116.8936
008055,GOWRIE,-30.3,116.8
008056,DOUTHA SPRINGS,-29.0,115.95
008057,GREEN GROVE,-29.5486,115.0689
008058,GREENOUGH,-29.0,114.8
008059,HILLRIVER FARM,-28.7,114.7
008060,SOUTH HOLMWOOD,-29.0364,115.5536
008061,HYDE PARK,-30.2842,116.6328
008062,ILLANA,-28.8,115.3
008063,INDARRA,-28.55,115.3
008064,INDARRIE,-30.6719,116.3079
008065,ISSEKA,-28.4292,114.6542
008066,KOKARDINE,-30.7008,117.0608
008067,KOOBABBIE,-29.9414,116.2003
008068,KOOLANOOKA EAST,-29.3,116.05
008069,KOOLANOOKA DAM,-29.3,116.1
008070,LAKE HINDS,-30.7819,116.5058
008071,LAKE NINAN,-30.95,116.65
008072,LATHAM,-29.7582,116.4446
008073,LATHAM EAST,-29.815,116.585
008074,LINTONS STATION,-29.2,115.9833
008075,LYNTON,-28.2103,114.305
008076,CARINYA,-29.3833,116.1167
008077,HIGHFIELDS,-29.6006,115.9392
008078,MALLEE VALE,-29.2419,115.7794
008079,MANARRA,-29.0711,115.6261
008080,MAYA,-29.8658,116.525
008081,MELLENBYE,-28.8883,116.1947
008082,MELROSE,-30.4,116.9
008083,MENDEL,-28.8,115.5
008084,MANAVI,-30.2608,116.21
008085,MILING,-30.4921,116.3625
008086,STRAWBERRY NORTH,-29.1514,115.2428
008087,MINDALLA,-30.4228,116.4583
008088,MINGENEW,-29.1906,115.4414
008089,MINGA MIA,-30.9833,116.3167
008090,UPSAN DOWNS,-29.7,116.1333
008091,MOORA,-30.6417,116.0072
008092,MORAWA WEST,-29.1908,115.8814
008093,MORAWA,-29.2103,116.0089
008094,MOUNT ERIN,-28.6,114.8
008095,MULLEWA,-28.5367,115.5142
008096,MUMBY,-28.1525,114.5689
008097,NARALING,-28.4472,114.9447
008098,NANGETTY,-29.0011,115.3986
008099,NARRA TARRA,-28.6928,114.7319
008100,NORTHAMPTON,-28.3618,114.6328
008101,NORTHERN GULLY,-28.7086,114.9072
008102,KONDUT EAST,-30.675,116.9389
008103,OAKABELLA,-28.5,114.6
008104,OGILVIE,-28.1544,114.6692
008105,RPF 102,-30.3,116.95
008106,PERANGERY,-29.3687,116.4062
008107,PERENJORI,-29.4417,116.2875
008108,PIAWANING,-30.8394,116.3858
008109,PINDAR,-28.4767,115.7897
008110,PINE RIDGE,-28.55,115.4
008111,PITHARA,-30.3883,116.6647
008112,RPF 170,-27.85,114.1333
008113,RIVERSIDE,-27.8325,114.7364
008114,ROSELM,-29.55,116.05
008115,ROUND HILL,-30.565,116.2364
008116,SANDSPRINGS,-28.7894,114.9417
008117,SHADY GROVE,-29.2844,115.19
008118,SUNDERLAND,-28.3231,114.9453
008119,TALLERING,-28.3772,115.8508
008120,TENINDEWA,-28.6214,115.3644
008121,THREE SPRINGS,-29.5339,115.7628
008122,TOOTRA,-30.6,116.4
008123,TOP WELL,-28.3781,114.7619
008124,TARDUN,-28.7928,115.7344
008125,URELLA,-29.0517,115.4
008126,MINARU,-29.8501,116.2287
008127,WADDY FOREST NORTH,-29.8,116.2
008128,TENINDEWA BINDU,-28.5536,115.2456
008129,WANDIN FARM,-28.45,115.3
008130,WATHEROO,-30.2992,116.0589
008131,QUEENS PARK,-28.7833,114.6167
008132,WATHEROO MAGNETIC OBS.,-30.3167,115.8833
008133,WATTLE GROVE,-29.9,116.2
008134,WHITE PEAK,-28.6475,114.6239
008135,WICKA,-28.7,114.9
008136,WINCHESTER,-29.8,115.9
008137,WONGAN HILLS,-30.8917,116.7186
008138,WONGAN HILLS RES.STATION,-30.8408,116.7267
008139,WUBIN,-30.1069,116.6328
008140,WYE WYE,-30.8,116.5
008141,WILLIGULLI NORTH,-28.3811,114.4531
008142,YAMMA POOL,-29.1911,115.7867
008143,YANDANOOKA,-29.2872,115.6331
008144,YARRAGADEE,-29.0759,115.4089
008145,YARRALLA,-29.7211,116.4947
008146,YTINICHE,-30.0706,116.2092
008147,YUNA,-28.325,114.9589
008148,BOOKARA,-29.0,114.9
008149,PELSART ISLAND,-28.9833,113.95
008150,NEWINGTON,-30.8722,116.7983
008151,WALEBING,-30.6646,116.1383
008152,NOONDIMURRA,-28.4667,114.8333
008153,NORWOOD,-29.8,116.7
008154,MILMOCUNDIN,-28.8697,114.8931
008155,WILROY,-28.65,115.6667
008156,NUNEADING,-30.7,116.8
008157,CANNA,-28.8975,115.8627
008158,ARROWSMITH,-29.55,115.0667
008159,MAYSBORO,-30.9904,116.3554
008160,MERIDALE,-30.5097,116.3728
008161,OPAWA,-29.2,115.5
008162,PINDEREE,-28.4,115.2
008163,RAVENSWOOD,-29.3,116.0
008164,WOOPENATTY,-29.35,115.6833
008165,YERECOIN,-30.9,116.4
008166,MURCHISON HOUSE,-27.7,114.2
008167,STRATHAIRD,-29.45,115.4667
008168,HOWATHARRA,-28.5447,114.6241
008169,LOCHADA,-29.2,116.55
008170,BRAESIDE 1,-28.5,115.65
008171,UDALE,-29.7833,115.35
008172,WONGOONDY,-28.85,115.5
008173,ELSMORNE FARM,-29.0333,115.75
008174,NOONDINE,-30.5456,116.0778
008175,TREVOSEE,-29.6833,115.7167
008176,CANTABILLING SPRINGS,-30.3,115.25
008177,LONGVIEW,-30.8667,116.1167
008178,YONGARLOO,-29.1858,115.7406
008179,EAST KONDUT,-30.6583,116.9344
008180,GNOWELLAN,-30.65,117.1078
008181,ENEABBA POST OFFICE OLD SITE,-29.8,115.35
008182,BOOTENAL,-28.8667,114.7333
008183,NEW MARACARRA,-28.7167,114.8167
008184,AJANA 2,-28.0,114.8
008185,ARRINO,-29.4,115.6
008186,BADDERA,-28.25,114.7
008187,BEALIBA DOWNS,-30.0,116.4
008188,BEATININE,-28.3,114.8
008189,BERKSHIRE VALLEY POST OFFICE 1,-30.6,116.2
008190,BOOMGALA,-27.8,114.7
008191,CADGY CADGY,-29.1,116.2
008192,CANNINGWOOD,-30.15,116.3
008193,COLDSTREAM,-28.4,115.3
008194,COOMBERDALE 1,-30.5,116.1
008195,DEEPDENE,-28.5,115.7
008196,PEARSE,-29.25,114.9
008197,DULA,-30.6,116.6
008198,DULI,-30.6,116.9833
008199,ENEGEE,-28.4,114.8
008200,ERADU,-28.6936,115.0408
008201,EUROGOBBIE,-29.6,116.7
008202,BINDI BINDI NORTH,-30.6221,116.3795
008203,ERADU GREENLANDS,-28.8,115.0167
008204,GUNYIDI,-30.2,116.1
008205,KILLARNEY,-30.1,116.8
008206,KOCKATEA,-28.7,115.55
008207,KOOJAN,-30.8,116.0
008208,LEWISTON,-30.4,116.65
008209,BEATTY SIDING,-28.6,115.6
008210,MARALANA,-29.0,116.1
008211,MARCHAGEE,-30.05,116.05
008212,ALLENDALE,-29.4,116.8
008213,MINGIN,-29.6,116.0167
008214,MOUNT VIEW,-27.9,114.6
008215,NARDY,-30.4853,116.2664
008216,PIAWANING 1,-30.85,116.3
008217,TERRARA,-28.8,116.0167
008218,TURIPA,-29.9167,116.1
008219,VALLEY FARM,-30.9,116.8
008220,WARWICK FARM,-29.8,116.7
008221,WIRILDA KOOGAN,-30.8,116.15
008222,WOOLTANA,-29.2,115.9
008223,NANSON,-28.5617,114.755
008224,MIARRA VALE,-28.6,114.9167
008225,ENEABBA,-29.8183,115.2722
008226,BOORAMBEE,-29.5833,115.3
008227,ERINDOON,-29.8667,115.15
008228,GIMLET HILL,-30.5939,116.5378
008229,NANEKINE,-29.015,115.6733
008230,ELENA,-30.3817,116.7217
008231,OAKLANDS,-29.4667,116.1325
008232,CLYDE PARK,-30.3317,116.7133
008233,FIVE GUMS,-29.4847,116.0703
008234,BYRON,-28.5685,115.2799
008235,DRUMMONDEARNOCH,-28.7036,115.8167
008236,MUNJA PARK,-28.7833,115.05
008237,TENINDEWA,-28.6857,115.2806
008238,HAKEA,-30.0989,116.2339
008239,CASUERINA,-28.35,115.5833
008240,COOLANGATTA,-28.91,115.5117
008241,DEEP WELL,-29.5,116.5
008242,WICHERA RESERVOIR,-28.7333,114.9667
008243,NIBY NIBY,-30.6167,116.2
008244,MARBARANA,-30.7,116.6667
008245,FERNLEIGH,-28.3333,114.8667
008246,RPF 125,-27.9667,114.8333
008247,DEEPDALE,-28.8,114.6833
008248,SUNDALARA,-29.5333,115.3667
008249,PERENJORI AMBULANCE,-29.45,116.2667
008250,DUDAWA,-29.3833,115.7167
008251,KALBARRI,-27.7119,114.165
008252,VREDE,-29.7,116.4333
008253,LAKE VIEW,-29.75,115.8833
008254,KONDUT,-30.7092,116.7744
008255,ROCK HILLS,-30.3833,116.8833
008256,SYLVANDALE,-29.4333,116.4833
008257,GUTHA,-28.9931,115.945
008258,WALKAWAY,-28.9417,114.8014
008259,WEIRMONGER,-28.3333,115.1
008260,YAMBINYA,-30.4333,116.3833
008261,MINDARRA,-29.0636,115.1753
008262,MOUNT ADAMS,-29.3583,115.2617
008263,MOORA LIGHTNING,-30.6308,116.03
008264,WANARRA,-29.5147,116.8011
008265,KALLADALE,-29.68,115.2683
008266,URAWA,-28.3275,115.5631
008267,NOKANENA,-28.3517,114.5778
008268,BALLA NORTH,-27.97,114.9686
008269,HIGH PLAINS,-28.2667,114.7144
008270,MOORE POINT,-28.7833,114.5167
008271,NINDETHANA FARM,-28.8114,115.9675
008272,BINNU WEST,-27.9972,114.3036
008273,ARENA,-29.3586,115.4503
008274,NARALING,-28.4194,114.8186
008275,ANRO,-30.3678,116.2653
008276,IRWIN HOUSE,-29.2236,115.1075
008277,RUFUS DOWNS,-30.2833,116.65
008278,WARRADARGE,-30.0722,115.3136
008279,YGOOLA,-30.6689,117.2103
008280,EURARDY,-27.5656,114.6731
008281,COURTLEA,-30.3322,116.6828
008282,RAT ISLAND,-28.7161,113.7847
008283,KARAWA,-30.1449,116.3834
008284,UNDANOOKA,-30.835,116.1581
008285,MATARANKA,-28.3181,114.7614
008286,WUNDI,-28.275,114.6761
008287,WARRINE,-28.6564,114.8558
008288,GHURKA,-28.2575,114.6033
008289,TWIN HILLS,-29.6708,115.3636
008290,NORTH ISLAND,-28.3009,113.5937
008291,SOUTH MERIDALE,-30.5475,116.3981
008292,TAWARRI WEST,-28.5164,115.37
008293,BUNDI FARM,-28.1128,115.0697
008294,WANDANA,-28.2094,115.285
008295,STRAWBERRY,-29.2094,115.2628
008296,MORAWA AIRPORT,-29.2039,116.0247
008297,DALWALLINU,-30.276,116.6715
008298,TIBRADDEN,-28.7597,114.937
008299,ARRADALE,-29.1103,115.3173
008300,TABLETOP,-29.0692,115.0915
008301,BARBERTON EAST,-30.7547,116.1303
008302,WONGAN HILLS NORTH,-30.8506,116.7208
008303,MORESBY,-28.7214,114.6481
008304,MOASCAR,-28.9571,114.9492
008305,PORT DENISON,-29.2778,114.9464
008306,DARTMOOR SOUTH,-28.0636,115.1903
008307,COOLANGATTA ALERT,-28.8916,115.4429
008308,TARDUN HILL,-28.7996,115.7616
008309,BELLENDAINE,-29.3049,115.6552
008310,SOUTH HOLMWOOD ALERT,-29.0291,115.5548
008311,MALLEE FARM,-27.9364,115.2972
008312,JAMINDA SPRINGS,-28.4928,114.7167
008313,S BEND,-28.9852,114.772
008314,GERALDTON PORT AUTHORITY BEACON NO 2,-28.7631,114.5647
008315,GERALDTON AIRPORT,-28.8047,114.6989
008316,YALLALIE BASIN,-30.3819,115.8464
008317,ANRO TBRG,-30.36,116.2896
008318,MINDALLA TBRG,-30.4215,116.4579
008319,WATHEROO RADAR,-30.36,116.2922
008320,DAISY DOWNS,-28.3803,115.4581
008321,TALLERING TBRG,-28.3777,115.8508
008325,GERALDTON BE10,-28.7518,114.5866
008326,GERALDTON AIRPORT (AUTO EVAP),-28.8047,114.6989
009000,ARALUEN,-32.1247,116.1025
009001,ARMADALE,-32.1303,116.0053
009002,ALLAMBIE,-31.2497,115.7303
009003,BELVOIR,-31.8,116.0
009004,BINDOON KEANEY COLLEGE,-31.3414,116.2133
009005,CAPITELA,-30.85,115.8667
009006,CHELSEA,-30.6256,115.7803
009007,CHIDLOW,-31.8622,116.2658
009008,CHITTERING,-31.4833,116.0833
009009,LOWER CHITTERING,-31.5998,116.1124
009010,CHURCHMAN BROOK,-32.1483,116.0761
009011,COCKLESHELL GULLY,-30.1478,115.0992
009012,MOUNT YOKINE RESERVOIR,-31.8814,115.8531
009013,COWALLA,-31.05,115.5667
009014,DANDARAGAN WEST,-30.6969,115.5817
009015,KARRAGULLEN NORTH,-32.0887,116.1259
009016,FORRESTDALE,-32.15,115.9
009017,FREMANTLE,-32.055,115.75
009018,GINGIN,-31.3461,115.9031
009019,GLENEAGLE,-32.2833,116.1833
009020,GREENMOUNT,-31.9,116.0567
009021,PERTH AIRPORT,-31.9275,115.9764
009022,GUILDFORD POST OFFICE,-31.8989,115.9719
009023,JARRAHDALE,-32.3342,116.0755
009024,MARBLING,-31.5608,116.0842
009025,MIDLAND,-31.8691,116.0167
009026,MIMIGARRA,-30.8533,115.4456
009027,MOGUMBER,-31.0,116.0167
009028,MOOLIABEENEE SIDING,-31.3,116.0167
009029,MUCHEA TREE FARM,-31.5825,115.9658
009030,MUNDARING,-31.8978,116.1581
009031,MUNDARING WEIR,-31.9564,116.1642
009032,MUNGEDAR,-30.4711,115.6475
009033,NEW NORCIA,-30.9711,116.2178
009034,PERTH REGIONAL OFFICE,-31.9556,115.8697
009035,NEDLANDS UWA,-31.9861,115.8192
009036,ROCKINGHAM POST OFFICE,-32.2842,115.755
009037,BADGINGARRA RESEARCH STN,-30.3381,115.5394
009038,ROTTNEST ISLAND LIGHTHOUSE,-32.0089,115.5022
009039,SERPENTINE,-32.3536,116.005
009040,WANNAMAL,-31.1428,116.0539
009041,WANNERIE,-31.1667,115.55
009042,WESTVALE,-30.86,115.7594
009043,LEEWANA PRK,-33.8667,115.9
009044,WUNGONG DAM,-32.1983,116.0622
009045,YANCHEP,-31.5567,115.6728
009046,YATHROO,-30.7742,115.6975
009047,YERE YERE,-30.6164,115.7194
009048,GOSNELLS,-32.1,116.0
009049,GOSNELLS 2,-32.0783,116.0017
009050,CANNING RIVER WEIR,-32.1575,116.1264
009051,GLEN FORREST,-31.9211,116.0908
009052,THE CHESTNUTS,-32.4,116.0167
009053,PEARCE RAAF,-31.6669,116.0189
009054,TAMBREY,-30.6033,115.6428
009055,DANDARAGAN,-30.6833,115.7
009056,FLOREAT PARK,-31.9494,115.7928
009057,HERNE HILL,-31.8186,116.0378
009058,KALAMUNDA,-31.9822,116.0594
009059,WINDY RIDGE,-32.0,116.0
009060,MAIDA VALE 2,-31.95,116.0
009061,SWANBOURNE MILITARY POST OFFIC,-31.9667,115.75
009062,GIDGEGANNUP 1,-31.7833,116.2167
009063,BADGINGARRA,-30.3903,115.5039
009064,KWINANA BP REFINERY,-32.2258,115.7611
009065,CARABAN,-31.3383,115.5525
009066,GIDGEGANNUP,-31.7906,116.1976
009067,UPPER SWAN RESEARCH STATION,-31.7564,116.0222
009068,MELVILLE,-32.0447,115.8214
009069,YEAL SWAMP EAST,-31.4558,115.8767
009070,SPEARWOOD,-32.1517,115.8008
009071,CLONTARF BOYS TOWN,-32.0167,115.8667
009072,BUNDIDUP,-30.2842,115.5242
009073,SERPENTINE PIPE HEAD,-32.3733,116.0581
009074,KALBYAMBA,-32.0167,115.9333
009075,BALAMARRA,-30.4,115.65
009076,BINDOON SOUTH,-31.4,116.1
009077,CANNING TIMBER MILLS,-32.0667,116.1
009078,CATABY,-30.7,115.6
009079,CLAREMONT,-31.9833,115.8
009080,CORNERS BROOK,-32.2,116.1
009081,DALE ROAD,-32.2,116.3
009082,ARMADALE TRAVELLERS ARMS HOTEL,-32.3,116.15
009083,FREMANTLE OVAL,-32.05,115.75
009084,FREMANTLE NORTH,-32.05,115.75
009085,GINGIN BROOK,-31.3,115.6
009086,HENDERSON NAVAL BASE,-32.1,115.75
009087,PERTH HIGHGATE HILL,-31.95,115.9
009088,HILL RIVER,-30.3,115.4
009089,JARRAHDALE MILL,-32.4,116.0167
009090,KANGAROO GULLY,-32.1,116.1
009091,INNER DOLPHIN PYLON,-31.9889,115.8311
009092,MANDOGALUP,-32.2,115.8
009093,MAYFIELD,-31.2,115.7
009094,MAYLANDS AIRPORT,-31.95,115.9
009095,BAYSWATER,-31.9,115.9
009096,MOUNT VICTORIA,-32.0333,116.05
009097,PERTH GARDENS,-31.95,115.85
009098,PERTH NORTH,-31.9333,115.8333
009099,PERTH SOUTH,-31.9667,115.85
009100,PERTH STIRLING STREET,-31.95,115.8667
009101,RANGERS VALLEY,-31.2,116.1
009102,SUBIACO,-31.9,115.8
009103,SUNNY DELL,-31.9333,116.2
009104,WANDU,-31.9,116.1
009105,WANNEROO,-31.7317,115.7931
009106,GOSNELLS CITY,-32.0481,115.9844
009107,MOUNT LAWLEY GOLF CLUB,-31.9167,115.8667
009108,SMITHS MILL,-31.9,116.2
009109,STONEVILLE RESEARCH STN,-31.8531,116.1783
009110,KEVALA,-30.0233,115.2375
009111,KARNET,-32.4389,116.0789
009112,BINDOON,-31.3928,116.0875
009113,ROLEYSTONE,-32.1133,116.0819
009114,LANCELIN,-31.016,115.3322
009115,SERPENTINE MAIN DAM,-32.4022,116.1039
009116,MUNBINEA,-30.26,115.1947
009117,WEXHAM,-31.9667,116.0
009118,LEDGE POINT,-31.15,115.4833
009119,GNANGARA,-31.7758,115.9433
009120,WANNEROO CALM,-31.7514,115.8014
009121,MOORE RIVER FORESTRY 6,-31.2358,115.5381
009122,YANCHEP NORTH FORESTRY,-31.4,115.7
009123,GINGIN FORESTRY 2,-31.3786,115.7861
009124,GINGIN FORESTRY 3,-31.4531,115.8058
009125,YANCHEP EAST FORESTRY 4,-31.5772,115.8164
009126,WEST PERTH,-31.9508,115.8453
009127,MOSMAN PARK,-32.0203,115.7692
009128,YANCHEP NORTH FORESTRY 7,-31.4,115.6333
009129,SCARBOROUGH BEACH POST OFFICE,-31.8931,115.7617
009130,TUYALI,-30.6408,115.5003
009131,JURIEN BAY,-30.3081,115.0311
009132,GLENEAGLE PLUVIO,-32.2833,116.1833
009133,LAKE LESCHENAULTIA,-31.8511,116.2539
009134,LOWER CHITTERING 2,-31.5667,116.0958
009135,WALLISTON,-31.9942,116.0692
009136,CANNING PARK,-32.0167,116.0
009137,CARDUP,-32.2475,116.0172
009138,BYFORD BRICKWORKS,-32.2167,116.0
009139,ALBANY HIGHWAY 47.5,-32.45,116.3
009140,KELMSCOTT FORESTRY,-32.1333,116.0167
009141,MARDELLA,-32.2667,115.95
009142,EAGLE HILL,-32.2833,116.2167
009143,PARKERVILLE,-31.8667,116.1333
009144,BARAMBA,-31.0769,115.5083
009145,BROWNS LAKE,-32.1667,115.8
009146,WAIKIKI,-32.31,115.7292
009147,MOOLIABEENEE,-31.3292,116.0811
009148,WESTFIELD,-32.1517,115.9542
009149,SAFETY BAY,-32.3,115.7147
009150,WOODMANS POINT,-32.1367,115.7667
009151,SUBIACO TREATMENT PLANT,-31.9556,115.7928
009152,MAHOMET SPRINGS,-30.5003,115.7119
009153,LESLEY,-32.15,116.1667
009154,NEWNESMORR,-32.05,116.1167
009155,WUNGONG BROOK NO.5,-32.2667,116.1333
009156,TUART HILL,-31.9,115.8333
009157,MORAY,-30.9667,115.8
009158,LINSLADE,-31.75,116.0333
009159,PERTH WEST,-31.95,115.85
009160,POINT PERON,-32.2667,115.7
009161,BENTLEY (CURTIN),-32.0022,115.8861
009162,UPPER CHITTERING,-31.4556,116.0978
009163,WEST SWAN,-31.8511,115.9942
009164,LONG POINT,-32.3667,115.7167
009165,BERAKIN FOREST,-31.9,116.4
009166,WHITBY FALLS,-32.2931,116.0136
009167,MOGUMBER FARM,-31.0053,115.9369
009168,KARRAGULLEN,-32.1189,116.1203
009169,CERVANTES,-30.5006,115.0664
009170,JANDAKOT UNIVERSITY STN,-32.1644,115.8306
009171,BROWNS LAKE,-32.1667,115.8333
009172,JANDAKOT AERO,-32.1011,115.8794
009173,STONEVILLE,-31.8758,116.1764
009174,KALLAROO,-31.7833,115.7333
009175,SUMMER VALLEY,-30.8872,116.0294
009176,STRATHBOGIE,-30.5333,115.3333
009177,SAN ANGELO,-31.1216,115.4458
009178,GINGIN AERO,-31.4628,115.8642
009179,ENEMINGA,-30.7994,115.5467
009180,CARMEL,-32.0186,116.0997
009181,SWAN VIEW,-31.8817,116.0592
009182,MAIDA VALE,-31.9672,116.0231
009183,TWO ROCKS,-31.4978,115.5914
009184,CRAIGIE,-31.775,115.77
009185,ST.MARYS PASTORAL,-31.85,115.9
009186,BEENYUP,-31.7858,115.7772
009187,MURDOCH,-32.0758,115.8469
009188,WOODSOME,-31.75,116.0
009189,COTTESLOE BEACH,-31.9833,115.75
009190,KELMSCOTT,-32.13,116.005
009191,CITY BEACH,-31.9286,115.7653
009192,FREMANTLE,-32.0533,115.7647
009193,ROTTNEST ISLAND,-32.0069,115.5022
009194,MEDINA RESEARCH CENTRE,-32.2208,115.8075
009195,MALMALLING,-31.95,116.3
009196,INNAMINCKA,-31.5667,116.1
009197,GARDEN ISLAND,-32.23,115.6844
009198,KELMSCOTT 2,-32.1261,116.0358
009199,LEEMAN,-29.9486,114.9781
009200,MUCHEA WILDFLOWER PARK,-31.5286,116.0
009201,WABLING,-31.3908,115.6811
009202,MOUNT HELENA,-31.8344,116.2197
009203,TUDOR PARK,-31.8986,116.3236
009205,MUNYERRING SPRINGS,-31.4317,116.2642
009206,PICKERING BROOK,-32.0381,116.1264
009207,PICKERING BROOK NORTH,-32.0208,116.1167
009208,TRANGIE,-32.4489,116.0242
009209,SPRINGDALE,-32.4331,116.0289
009210,LAKE NAMMEN,-30.8928,115.5789
009211,PINDARITA,-30.2892,115.3203
009212,SAWYERS VALLEY,-31.9031,116.2008
009213,WONYIL,-31.9278,116.1861
009214,OCEAN REEF,-31.7594,115.7278
009215,SWANBOURNE,-31.956,115.7619
009216,VICTORIA DAM,-32.0394,116.0656
009217,KINGSLEY,-31.8097,115.8183
009218,GILLINGARRA,-30.9311,116.0417
009219,LUPIN VALLEY,-30.6919,115.8119
009220,CABRAE,-31.4956,116.0547
009221,CHITTERING HEIGHTS,-31.4367,116.0642
009222,GLENROYD,-31.7422,116.2144
009223,SORRENTO,-31.8367,115.7692
009224,FREMANTLE PORT,-32.0544,115.7414
009225,PERTH METRO,-31.9192,115.8728
009226,GOORALONG ORCHARD,-32.2667,116.0833
009227,PARKVILLE,-31.8833,116.15
009228,LENNARDS BROOK,-31.3778,116.0481
009229,HAMPTON DOWNS,-31.3556,115.97
009230,MOUNT HELENA 2,-31.85,116.1833
009231,WAKEDALE,-31.1833,115.85
009232,KURRIE,-31.1833,115.8
009233,PIESSE GULLY,-32.0,116.0833
009234,CANTERBURY,-31.0,116.2067
009235,MUCHEA,-31.5167,116.0333
009236,BAILUP STUD,-31.7222,116.2747
009237,CULLACABARDEE,-31.8153,115.8875
009238,GUILDERTON,-31.3489,115.5028
009239,BEDFORDALE,-32.1753,116.0542
009240,BICKLEY,-32.0072,116.1369
009241,ROLEYSTONE WEST,-32.1308,116.0614
009242,CLOON,-32.3956,115.9744
009243,WOODRIDGE ESTATE,-31.335,115.5722
009244,HERNE HILL,-31.8219,116.0367
009245,JARRAHDALE MINESITE,-32.2917,116.1022
009246,LEYTON,-30.9442,116.4989
009247,FREMANTLE FPA BUILDING,-32.0333,115.7333
009248,MOONDAH BROOK,-31.332,115.9513
009249,MARIGINIUP,-31.6992,115.8628
009250,PERTH AIRPORT COMPARISON,-31.9356,115.9639
009251,COONAWARRA DOWNS,-30.1283,115.5011
009252,NOBLE FALLS,-31.7683,116.2475
009253,HOPELANDS,-32.3914,115.8489
009254,ARMAMENT JETTY,-32.1758,115.6808
009255,COLPOYS POINT,-32.2272,115.6994
009256,GARDEN ISLAND HSF,-32.2433,115.6839
009257,FORRESTDALE,-32.15,115.9486
009258,ANKETELL,-32.2156,115.8758
009259,COORANG,-31.0811,115.8569
009260,MOUNT SOLUS,-32.4697,116.2143
009261,NORTH BADGINGARRA (TOOMBULLUP),-30.2875,115.4656
009262,GNANGARA PARK,-31.6439,115.8281
009263,WHITEMAN PARK,-31.8372,115.9502
009264,TAMALA PARK (MINDARIE),-31.7078,115.7244
009265,HILLARYS BOAT HARBOUR NTC AWS,-31.8256,115.7386
009266,MOGUMBER WEST,-31.0697,115.9581
009267,GIDGEGANNUP NORTH,-31.7008,116.1847
009268,JULIMAR FOREST,-31.4566,116.3701
009269,BINDOON ARMY GATE,-31.3397,116.26
009270,MOOLIABEENEE TBRG,-31.3297,116.0813
009271,BUNGENDORE,-32.1886,116.0564
009272,PERTH RADAR,-32.3917,115.867
009273,AUSTRALIND,-33.2722,115.7167
009274,MINSTON PARK,-31.2614,116.126
009275,MUCHEA,-31.5869,115.9694
009276,NAMBUNG STATION,-30.5744,115.2231
009277,LAKE CHITTERING,-31.4319,116.0856
009278,YOONGARILLUP TBRG,-33.7394,115.47
009279,CANTERBURY,-31.0008,116.2314
009280,LANCELIN (DEFENCE),-30.8392,115.2283
009281,MILLENDON (SWAN VALLEY),-31.8112,116.0227
009289,PERTH AIRPORT (AUTO EVAP),-31.9275,115.9764
009291,PERTH AIRPORT COMPARISON,-31.9294,115.9762
009500,ALBANY,-35.0289,117.8808
009501,ARUNDEL,-34.4736,117.48
009502,BOWELLING,-33.4167,116.4767
009503,BOYANUP,-33.4825,115.7286
009504,BOYUP BROOK,-33.8325,116.3894
009505,BALINGUP,-33.7864,115.9817
009506,BANGALUP,-34.4678,116.9169
009507,BANNISTER,-32.6836,116.5194
009508,BIDDELIA,-34.25,115.75
009509,BODDINGTON SHIRE,-32.8094,116.4581
009510,BRIDGETOWN COMPARISON,-33.9575,116.1375
009511,ELSFIELD,-32.7,115.95
009512,SPRINGFIELDS,-34.4011,115.9353
009513,BRUNSWICK JUNCTION,-33.2136,115.85
009514,BUNBURY POST OFFICE,-33.3267,115.63
009515,BUSSELTON SHIRE,-33.6611,115.3456
009516,CAPEL,-33.5506,115.5717
009517,CASTLEDENE,-33.7175,115.85
009518,CAPE LEEUWIN,-34.3728,115.1358
009519,CAPE NATURALISTE,-33.5372,115.0189
009520,CAPE RICHE,-34.6086,118.7511
009521,CARMENDALE,-34.735,117.7217
009522,YALLINGUP,-33.6333,115.0
009523,ILLALANGI,-34.9728,117.2669
009524,CORDINUP,-34.67,118.5317
009525,CULICUP ESTATE,-33.8742,116.6544
009526,NORTH DANDALUP,-32.5167,115.9667
009527,DARDANUP EAST,-33.3969,115.7833
009528,DARRADUP,-34.0833,115.5833
009529,DEEP RIVER,-35.0,116.65
009530,DEESIDE,-34.3771,116.4145
009531,DENMARK,-34.9617,117.3567
009532,DENMARK AGRIC. SCHOOL,-34.9528,117.3733
009533,DINNINUP,-33.8394,116.56
009534,DONNYBROOK,-33.5719,115.8247
009535,CORONET HILL,-33.8267,122.4922
009536,DORSET DOWNS,-34.2,116.9833
009537,QUINDALUP,-33.6,115.1
009538,DWELLINGUP,-32.7103,116.0594
009539,BREAKSEA ISLAND,-35.0667,118.05
009540,MARGARET RIVER 1,-33.9833,115.0167
009541,ESPERANCE POST OFFICE,-33.85,121.8833
009542,ESPERANCE AERO,-33.6825,121.8274
009543,FALNASH,-33.9333,116.3
009544,FANNY COVE,-33.8333,121.1667
009545,FERGUSON,-33.4356,115.8433
009546,FERNDALE,-33.8167,115.9333
009547,FOREST GROVE,-34.0744,115.0808
009548,GLEN IVOR,-33.6167,116.0
009549,GLENORAN,-34.3,115.9833
009550,GLEN WARREN,-34.4189,116.2086
009551,GRASSMERE,-35.0151,117.7577
009552,GREENBUSHES,-33.8564,116.055
009553,HAMEL,-32.8683,115.9139
009554,HARVEY POST OFFICE,-33.08,115.8917
009555,HAYNESDALE,-34.2833,117.0833
009556,ALDERVALE,-33.9781,116.3336
009557,HOPETOUN,-33.9327,120.0944
009558,IAWAKIA,-34.6922,117.2347
009559,KALGAN RIVER,-34.9097,117.9942
009560,KARRIDALE,-34.2,115.1
009561,KENDENUP,-34.4858,117.6289
009562,KENINUP,-33.9333,116.5667
009563,WATTLEGROVE,-34.8,117.0167
009564,KING RIVER,-34.9431,117.9242
009565,KOJANEERUP,-34.5319,118.2781
009566,KUDARDUP,-34.3,115.1
009567,EULIN HOUSE,-33.8,116.7
009568,LAKE MUIR,-34.5167,116.6167
009569,BUSSELTON,-33.655,115.3194
009570,EAST NANNUP,-34.0183,115.8339
009571,HILLCREST,-33.8592,116.19
009572,HALLS HEAD,-32.5385,115.7002
009573,MANJIMUP,-34.2508,116.145
009574,MARGARET RIVER,-33.9583,115.0636
009575,MARRADONG,-32.8556,116.45
009576,MARYLANDS,-33.8,115.3
009577,STRATHALBYN,-34.6161,116.0239
009578,MERLOO FARM,-34.9,117.7
009579,OAKE MARSH FARM,-33.7633,122.0675
009580,MORNINGTON MILLS,-33.15,115.9333
009581,MOUNT BARKER,-34.625,117.6361
009582,MANYPEAKS,-34.8389,118.1703
009583,MYLOR,-33.86,115.855
009584,MYRUP,-33.7422,121.995
009585,NANNUP,-33.9797,115.7656
009586,NANNUP EAST,-34.0167,115.8
009587,NEWBICUP,-33.9967,116.4253
009588,NOGGERUP,-33.5833,116.1833
009589,NORNALUP,-34.9919,116.8206
009590,NORTHCLIFFE,-34.6336,116.1236
009591,PARDELUP,-34.6279,117.3851
009592,PEMBERTON,-34.4478,116.0433
009593,PEMBERTON POST OFFICE,-34.45,116.0167
009594,PEPPERMINT GROVE,-34.435,119.3628
009595,PERILLUP,-34.5694,117.2497
009596,PINJARRA,-32.6272,115.8747
009597,QUINDALUP,-33.6833,115.15
009598,RADYR PARK,-33.05,115.9
009599,BARRETT MEADOWS,-34.98,117.6322
009600,ROSA BROOK,-33.9628,115.1828
009601,ROELANDS VILLAGE,-33.3208,115.8825
009602,SHANNON RIVER,-34.6,116.4167
009603,BUSSELTON AERO,-33.6818,115.4026
009604,TANDARA,-34.95,118.15
009605,TENTERDEN,-34.367,117.553
009606,DRUMMONDS,-34.3417,115.9892
009607,WHITE GUMS,-34.5472,117.9363
009608,TOTTENUP,-33.9833,116.5333
009609,YOUNGS SIDING,-35.0183,117.5289
009610,WAGERUP,-33.1,115.9
009611,WALPOLE,-34.9761,116.7328
009612,WALPOLE NORTH OLD,-34.8511,116.7092
009613,WARNER GLEN,-34.1436,115.2261
009614,WAROONA,-32.8564,115.8925
009615,WARRIUP,-34.715,118.4692
009616,WESTBOURNE,-34.0911,116.6628
009617,BRIDGETOWN,-33.9486,116.1311
009618,WILGA STATE SCHOOL,-33.7,116.2
009619,WILGARRUP,-34.1519,116.2042
009620,WILLOW SPRINGS,-34.3,115.95
009621,WOODBURN,-34.6997,117.9556
009622,WOODPERRY,-33.6244,115.9339
009623,WOOGENELLUP,-34.5303,117.8247
009624,YARLOOP,-32.9592,115.9008
009625,YELLANUP,-34.7275,117.9222
009626,PLEASANT VALLEY,-33.7106,121.5619
009627,YORNUP,-34.0772,116.2033
009628,COLLIE,-33.3603,116.1473
009629,MARRIWOOD,-33.4464,115.7308
009630,WONNENUP,-34.2111,117.1025
009631,ESPERANCE DOWNS RESEARCH STN,-33.6031,121.7828
009632,FERNBROOK,-33.2667,115.9833
009633,TAMAR,-34.8643,118.1121
009634,PARKFIELD,-33.2058,115.7147
009635,FRANKLAND,-34.3633,117.0836
009636,COWARAMUP,-33.8358,115.0747
009637,DENMARK RES.STN.,-34.9511,117.37
009638,BOWS FARM,-33.7,121.7
009639,BEELA,-33.2333,115.9167
009640,COOEEARUP,-33.95,116.05
009641,FRANKLAND (THREE PINES),-34.3,117.1
009642,WOKALUP,-33.1328,115.8794
009643,ROSAMEL,-33.2,115.7
009644,MEELUP,-33.5903,115.0678
009645,STOKES INLET,-33.7981,121.1503
009646,GLENBOURNE,-33.9,115.0
009647,WEREROA,-34.9506,117.2769
009648,THIRLMERE,-33.5064,115.6403
009649,KEMERTON,-33.1792,115.7494
009650,BINNINGUP,-33.1517,115.6917
009651,LOWDEN,-33.5364,115.9472
009652,YOUNG RIVER,-33.7767,121.1133
009653,HEARTLEA,-34.1,116.5
009654,BREMER BAY,-34.3989,119.378
009655,COOLINUP,-33.7867,122.1683
009656,TONEBRIDGE,-34.1867,116.7133
009657,ROELANDS,-33.2947,115.7706
009658,COURTENEY,-34.1833,115.2
009659,HUNTLY,-32.6,116.05
009660,MCLEODS CREEK,-34.1606,115.1414
009661,ROCKY GULLY TOWN,-34.5097,117.0117
009662,CAPE LE GRANDE,-34.0,122.1167
009663,BEDFORD HARBOUR RPF1,-33.8167,120.5167
009664,LADYVALE,-34.0667,116.1
009665,RANCHO X,-33.8381,122.41
009666,MCALINDEN,-33.5964,116.3347
009667,LOCH ELLEN,-34.45,117.55
009668,KURANDA,-33.6739,116.6475
009669,BALINGUP - LILYDALE,-33.7108,115.8017
009670,HENDRA,-34.245,115.1433
009671,WILGA,-33.6878,116.2147
009672,BRAMLEY RES.STN.,-33.8933,115.085
009673,BOKERUP,-34.2511,116.8767
009674,LANGLEY PARK,-33.7953,122.1578
009675,MAIKURRA,-33.8117,122.445
009676,WINNEJUP,-33.9833,116.3333
009677,PINEVALE,-33.8167,121.9
009678,REDMOND,-34.8788,117.6726
009679,LAKE PRESTON LODGE 2 COMP.,-32.9939,115.7272
009680,PORONGORUP,-34.6733,117.9
009681,AUGUSTA,-34.3167,115.15
009682,BLACKWATTLE,-34.3667,117.05
009683,POINT KING,-35.0333,117.9167
009684,SOUTHAMPTON,-33.8833,115.9833
009685,THE WARREN,-34.5167,115.9833
009686,BLYTHWOOD,-32.7,115.9
009687,BRUNSWICK STATE FARM,-33.3,115.8
009688,LEYLAND,-33.3,115.6
009689,TAKENUP CREEK,-34.7597,117.9597
009690,CONDINUP,-33.7619,116.5214
009691,COOYAH,-34.0,115.6
009692,BIDELLIA,-34.2267,115.7597
009693,CUNDENUP,-33.8,115.8
009694,CUNYULGUP,-33.75,115.0
009695,DARDANUP,-33.3978,115.7536
009696,DENNINUP DOWNS,-33.9,116.8
009697,DENNINUP VALE,-33.9,116.7
009698,DINGUP,-34.2,116.2
009699,DONNELLY PARK,-34.2,115.9833
009700,DUDINALUP,-33.9,115.8
009701,DUNCANS MILL,-32.7,116.3
009702,DWELLINGUP RAILWAY,-32.7,116.1
009703,GIBSONS SOAK,-33.6,121.8
009704,GLENCOE,-34.1,116.9833
009705,GLEN MERVYN,-33.5203,116.0742
009706,GLENPENNENT,-34.3,116.3
009707,GLENWOOD,-33.2,116.4
009708,GREENFIELDS,-33.9,116.35
009709,GUNWARRIE,-34.3,117.2
009710,BUREKUP,-33.3097,115.8186
009711,JARNADUP,-34.2833,116.1
009712,KILLARA 2,-34.1,115.8
009713,KINGURA,-34.3,116.2
009714,KIRUP,-33.7039,115.8903
009715,THOMAS RIVER,-33.8025,123.0331
009716,MAROONDAH DOWNS,-33.2,115.9
009717,MCLEODS CREEK STATE SCHOOL,-34.2,115.1
009718,MORDALUP,-34.3,116.6167
009719,NAPIER CREEK,-34.8,118.0
009720,MURILUP,-34.65,116.3
009721,DALYUP,-33.8,121.5
009722,WANDAGARRUP,-34.4,116.0
009723,PERUP,-34.3,116.5
009724,QUINDALUP SCHOOL,-33.6333,115.1
009725,RIVERSDALE,-34.3,116.9833
009726,RIVERSIDE,-34.4,116.4
009727,SAINT WERBURGHS,-34.7,117.6
009728,SANTA MARIE,-34.9,117.55
009729,JEDAVYN,-34.5458,118.1947
009730,COOMALBIDGUP,-33.6961,121.3656
009731,HOMEBUSH,-33.1,115.9
009732,MURRAY UPPER,-32.8167,116.1167
009733,WARABA,-32.8,115.8
009734,WHITTAKERS MILL,-32.5,116.0
009735,YANMAH SCHOOL,-34.2,116.0
009736,YARROWEE,-34.35,116.2
009737,YOULUP,-34.4,117.4
009738,MUJA POWER STATION,-33.4531,116.3025
009739,TELINA DOWNS,-33.6789,122.3311
009740,GORDON RIVER,-34.2358,117.1869
009741,ALBANY AIRPORT COMPARISON,-34.9414,117.8022
009742,BANNISTER NORTH,-32.5814,116.4442
009743,WAROONA WEST,-32.8883,115.7294
009744,PAYNEDALE,-33.6469,115.7031
009745,GORDON RIVER,-34.2492,117.2444
009746,WITCHCLIFFE,-34.0281,115.1042
009747,WAROONA DAM,-32.8458,115.9792
009748,JAYES,-33.9167,116.4
009749,FAIRBRIDGE,-32.6042,115.9464
009750,WARENING HILLS,-32.7,115.95
009751,BREMER BAY POST OFFICE,-34.4,119.4
009752,DENBARKER,-34.7451,117.3403
009753,PREVELLY PARK,-33.9833,114.9833
009754,METTLER,-34.5961,118.5519
009755,YARRAGIL BROOK,-32.8333,116.2
009756,DAVIES BROOK,-32.7167,116.1333
009757,DUNNETS FARM,-34.45,115.9
009758,ALAMEIN TRACK,-34.4653,115.8325
009759,DOMBAKUP,-34.5667,116.1333
009760,GIBBS FARM,-33.4167,115.9
009761,WALLACE ROAD,-32.85,116.2
009762,MARYLANDS,-33.8333,122.6333
009763,DOMBAKUP BROOK,-34.6314,116.0536
009764,BEDFORD HARBOUR 1,-33.75,120.6
009765,RUTHVEN,-34.4322,117.3164
009766,LITTLE GROVE,-35.0597,117.8658
009767,YALLINGUP,-33.6683,115.0428
009768,TARIPTA,-34.3606,117.6186
009769,CULFORD,-32.5708,116.4354
009770,ANGUS DOWNS,-34.6667,117.3333
009771,YOONGARILLUP,-33.7411,115.4697
009772,ERINAIR,-33.7608,121.2156
009773,COOKERNUP,-32.9967,115.9008
009774,LOFTHOUSE,-33.6125,115.48
009775,DYMESBURY PARK,-34.95,117.8833
009776,ASTON DOWNS ALERT,-33.7931,115.3189
009777,DALYUP,-33.65,121.5833
009778,MARGARET RIVER CALM,-33.935,115.0831
009779,BRANKSOME,-34.5333,117.6167
009780,GLEN ISTLE,-34.3842,116.1025
009781,BENJINUP,-33.7833,116.3333
009782,BANDICOOT NURSERY,-34.7406,117.4233
009783,HITHERGREEN,-33.7,115.5158
009784,KIMBERLEY,-34.9319,117.1606
009785,CARUNUP,-33.7,115.1667
009786,TORBAY,-35.0,117.5833
009787,ECLIPSE ISLAND,-35.1833,117.8833
009788,BOYATUP,-33.8144,122.2942
009789,ESPERANCE,-33.83,121.8925
009790,YARRAMIE,-34.3,119.1667
009791,CRAIGIAN,-34.5,116.1833
009792,QUININUP BARNES,-34.4,116.2167
009793,CAPE ARID,-33.9667,123.2167
009794,BEDFORD HARBOUR,-33.8039,120.6375
009795,DUNGALLY,-33.0,116.3
009796,COOMELMIA,-33.3856,121.3722
009797,THE CUMBERLAND,-34.1167,116.3667
009798,JERDACUTTUP,-33.8847,120.4222
009799,WAYCHINICUP DOWNS,-34.7744,118.2811
009800,LAKE WARDEN FARM,-33.8097,121.8511
009801,ALEXANDRA BRIDGE,-34.1597,115.1892
009802,THE OAKS,-33.6633,121.6306
009803,CHAPMAN HILL,-33.7831,115.3447
009804,ADINA,-33.8811,122.2167
009805,WALPOLE FORESTRY,-34.9769,116.7286
009806,LAKE CLIFTON,-32.8,115.6667
009807,COLLIE BOYS TOWN,-33.35,116.15
009808,ELGIN,-33.5167,115.6167
009809,STIRLING VIEW,-34.5,117.7833
009810,PINJARRA FARMLANDS,-32.6517,115.9067
009811,CRAWFORD DALE,-34.2167,116.5
009812,HARVEY,-33.0789,115.8806
009813,MOUNT HOWICK,-33.7294,122.7552
009814,WELDSGIFT,-33.7,115.8
009815,THE DUKE,-33.8819,122.5661
009816,LORT RIVER STATION,-33.7256,121.3014
009817,THE BEEF MACHINE,-33.7517,122.3708
009818,YERRITUP,-33.7708,121.1058
009819,ESPERANCE AIRSTRIP ROAD,-33.8,121.9333
009820,CASTLE TOWN,-33.8333,121.9333
009821,GLENGOWAN,-33.8,122.6667
009822,DALYUP PARK,-33.7753,121.555
009823,GEOVON,-33.6833,122.5
009824,JONEGATUP,-33.6519,120.9986
009825,ORLEANS FARM NORTH,-33.7517,122.9128
009826,ORLEANS FARMS S.W.,-33.8019,122.8519
009827,SECOND BEACH,-33.8819,121.8597
009828,DUGANALLY,-32.9833,116.2167
009829,TALLANGATTA,-33.8911,120.3256
009830,LEEWANA PARK,-33.8667,115.9
009831,KING RIVER,-34.9173,117.8862
009832,LOWER KALGAN,-34.9469,118.0039
009833,YARRAGIL BROOK,-32.8,116.25
009834,HAKEA,-33.6983,120.5492
009835,WAYJO PARK,-34.4033,118.9689
009836,MYOLA,-33.8144,120.5136
009837,WELLSTEAD,-34.4889,118.6211
009838,RANCHO EL CENTIPEDO,-34.2939,115.1461
009839,BUCKINGHAM,-33.4,116.3167
009840,BUSSELTON OLD AIRPORT,-33.6333,115.3667
009841,ARKAROOLA,-35.0111,117.6425
009842,JARRAHWOOD,-33.7964,115.6658
009843,FRANKLAND VINEYARDS,-34.4417,116.9944
009844,HAY PARK,-33.3694,115.6378
009845,WOODVILLE,-34.3464,115.7808
009846,ELROY,-33.695,122.2269
009847,MOKINE DOWNS,-33.7794,122.715
009848,WINDRUSH,-34.7711,118.1172
009849,OCEANVIEW FARMS,-33.8425,122.7622
009850,CARBARUP,-34.5378,117.7197
009851,MANYPEAKS,-34.9008,118.2019
009852,CHEYNE BEACH,-34.8883,118.3958
009853,QUAALUP,-34.25,119.5
009854,AV-A-REST,-33.8017,116.6
009855,CORDERING,-33.5167,116.6
009856,GLENORCHY,-33.7,116.7
009857,QUINDANNING,-33.0333,116.5667
009858,SYLVAN LOCH,-33.65,116.5667
009859,HILLMAN,-33.3061,116.8031
009860,KINGSTONE,-34.05,116.85
009861,BEAUFORT PLN,-34.3833,118.8167
009862,CAPERCUP,-33.5083,116.7386
009863,BROOKWOOD,-33.7167,116.7333
009864,NORTHUMBERLAND,-33.8667,116.85
009865,WARRA JARRA,-34.3997,118.8867
009866,BALGA,-33.6833,120.7167
009867,LORINNA,-33.6511,122.0161
009868,MUNGLINUP,-33.7078,120.8653
009869,GREENSLOPES,-32.7667,116.5833
009870,CAPE LE GRAND NAT PARK,-33.9161,122.2083
009871,WINDY HARBOUR,-34.8373,116.026
009872,MCARTHUR PARK,-33.1133,116.0225
009873,SOUTH DANDALUP DAM,-32.6492,116.0383
009874,NORTH DANDALUP DAM,-32.5233,116.0139
009875,MOUNT BARKER NORTH,-34.5702,117.623
009876,CHOWERUP,-34.1311,116.7394
009877,LUDLOW,-33.6033,115.4983
009878,WEST CRANBROOK,-34.2183,117.2975
009879,7 KM OFF SCARBOROUGH,-31.9,115.6833
009880,SOUTH PASSAGE PYLON,-32.0167,115.6167
009881,SW ROTTNEST ISLAND,-32.1167,115.4333
009882,FREMANTLE FPA BUILDING,-32.0333,115.7333
009883,SW ROTTNEST ISLAND 46M DEPTH,-32.1167,115.4333
009884,OFF SCARBOROUGH 22M DEPTH,-31.9,115.6833
009885,BUNBURY POWER STATION,-33.3158,115.66
009886,HAZELMERE,-33.7917,116.6031
009887,MANDURAH,-32.5211,115.75
009888,KENDENUP SOUTH,-34.5147,117.6692
009889,DEL PARK,-32.6544,116.0158
009890,PINJARRA MUDLAKES,-32.6367,115.9389
009891,PINJARRA REFINERY,-32.6553,115.9309
009892,JARRAHDALE MINESITE,-32.2917,116.1022
009893,WILLOWDALE,-32.9233,116.0078
009894,WAGERUP REFINERY,-32.9183,115.9217
009895,WILLCHER FARM,-33.7878,123.1878
009896,BEN AVON,-34.7103,118.3764
009897,CAPE ARID NATIONAL PARK,-33.8539,123.0074
009898,MARDALLIANG,-34.8208,118.3225
009899,KARRALEA,-34.8883,118.0789
009900,CHORKERUP,-34.8364,117.6914
009901,ATHENA,-34.9964,117.7197
009902,FERN RIDGE,-34.8908,117.7094
009903,BROOK FARM,-34.5889,116.3433
009904,WALTERS FARM,-34.5967,116.1072
009905,NERRAGAGUP POOL,-34.345,116.3639
009906,GLENGARREN,-34.1378,116.2333
009907,YANMAH,-34.2131,116.0231
009908,ONE TREE BRIDGE (HAZELMERE),-34.2289,115.9294
009909,ASTON DOWNS,-33.7914,115.3189
009910,CLOVERLOCK,-33.8325,115.3147
009911,CHARLIES CREEK,-33.5947,115.9581
009912,FERGUSON VALLEY,-33.445,115.8508
009913,EKAMURRA,-33.6906,115.8439
009914,VALERN,-33.3545,116.6747
009915,HILLVIEW FARM,-32.9981,115.9211
009916,CRENDON,-33.6422,115.8119
009917,PERIVALE ORCHARD,-33.7058,115.7878
009918,RAVENSCLIFFE,-33.7653,115.8397
009919,HAZELVALE,-34.9,116.7881
009920,LOGUE BROOK DAM,-33.0067,115.9631
009921,OLDFIELD,-33.6539,121.3683
009922,WEST LORT RIVER,-33.6492,121.1972
009923,WORSLEY DOWNS,-33.3156,115.9861
009924,WYNDARRA,-34.2489,116.4969
009925,IRONSTONE GULLY,-33.6617,115.7067
009926,SCOTT RIVER,-34.2989,115.4447
009927,THE WOLD,-33.6028,116.0128
009928,VERMEULEN,-34.8389,116.7211
009929,DUCK LAKE,-35.0042,117.8608
009930,TAMARU,-34.8802,118.0509
009931,TOOBURRA,-34.8736,118.0822
009932,WELLINGTON DAM,-33.3997,115.9786
009933,MANJIMUP WA CHIP&PULP,-34.3367,116.1083
009934,HARVEY WATER RESOURCES,-33.0767,115.91
009935,MANJIMUP WATER RESOURCES,-34.2411,116.1433
009936,HUNTLY,-32.6239,116.0603
009937,BUSSELTON JETTY,-33.6294,115.3383
009938,WELLINGTON MILL,-33.4761,115.9242
009939,FREMANTLE PORT,-32.0556,115.7394
009940,YARUNGA,-32.1206,116.0839
009941,COOLANGATA SOUTH,-33.8094,116.3831
009942,LEYTON,-30.9456,116.4994
009943,WORSLEY,-33.3167,116.05
009944,YERRITUP CREEK STN,-33.7167,121.0833
009945,MANJIMUP (SMITHS BROOK TRIB),-34.3667,116.2
009946,DONNELLY RIVER,-34.1833,116.1667
009947,DONNELLY RIVER,-34.1333,116.15
009948,ROSA BROOK,-33.9383,115.2669
009949,FERRARIS FARM,-33.4072,116.6242
009950,DONALDI,-33.4714,116.0106
009951,KELVIN BANK,-34.3175,116.5831
009952,WATERFALL GULLY,-34.0303,116.4392
009953,AURORA DOWNS,-33.5447,116.6444
009954,MERIVALE FARM,-33.8097,122.0844
009955,NEWLEIGH,-33.7314,120.9308
009956,AUGUSTA EAST,-34.3133,115.1675
009957,PEACEFUL BAY,-35.0367,116.9247
009958,KARRIVALE,-34.6625,117.8394
009959,BUNINYONG,-33.8453,120.7625
009960,YOURDAMUNG LAKE,-33.2022,116.2764
009961,HOPETOUN NORTH,-33.9306,120.1282
009962,BROOKHAMPTON,-33.5925,115.8833
009963,GLENMORE,-33.6858,115.0153
009964,ROCKY GULLY,-34.5714,117.0106
009965,BUNBURY,-33.3567,115.6447
009966,OLD CULICUP,-33.8578,116.675
009967,NARRIKUP WEST,-34.7772,117.6508
009968,SHANNON,-34.5683,116.3367
009969,WESTERN 2,-33.4264,116.245
009970,LOUGHREA,-33.8064,120.9128
009971,ACTON PARK,-33.7845,115.4072
009972,AMBERGATE,-33.7333,115.3411
009973,BANYULA,-34.8675,118.2156
009974,FRENCHMAN BAY,-35.0955,117.9615
009975,BUNDALEER,-34.7031,118.2992
009976,PINJARRA SOUTH,-32.6453,115.8644
009977,MANDURAH,-32.5219,115.7119
009978,JINDONG,-33.7563,115.2096
009979,CORAMUP,-33.7622,121.9336
009980,KARRI VALLEY RESORT,-34.4211,115.8519
009981,FOREST EDGE,-32.8392,115.9533
009982,HENTY BROOK,-33.3889,115.8507
009983,STYLES TOWER,-33.9123,115.8999
009984,VASSE HWY CB3,-33.7033,115.4002
009985,LITTLE CHORKERUP,-34.8342,117.7919
009986,WELLINGTON MILL ALERT,-33.4775,115.9258
009987,PAYNEDALE ALERT,-33.6416,115.7033
009988,HAPPY VALLEY,-33.6808,115.6242
009989,THOMSON BROOK,-33.6458,115.9553
009990,BOYANUP NORTH,-33.4777,115.7391
009991,DONNYBROOK EAST,-33.5711,115.8383
009992,CAPEL NORTH,-33.5435,115.5509
009994,COLLIE EAST,-33.3608,116.1717
009995,LAKE SHASTER,-33.8044,120.6342
009996,LATITUDE 33 WINES,-33.8294,115.1903
009997,RAVENSCLIFFE ALERT,-33.7647,115.8431
009998,NORTH WALPOLE,-34.9469,116.7222
009999,ALBANY AIRPORT,-34.9411,117.8158
010000,AMERY ACRES,-31.1683,117.0736
010001,BAANDEE,-31.6,117.9667
010002,BAANDEE NORTH,-31.3667,117.9031
010003,BALKULING,-31.9833,117.1
010004,BEACON,-30.4492,117.865
010005,BUNINE,-30.3,117.9
010006,BELKA,-31.7269,118.1103
010007,BENCUBBIN,-30.8081,117.8603
010008,BERRY BROW,-31.8167,116.5333
010009,BOLGART,-31.2744,116.5092
010010,BONNIE DOON,-30.9386,117.9642
010011,BONNIE ROCK,-30.4722,118.3819
010012,BOODJERAKINE,-31.5258,117.4064
010013,BOORALAMING,-30.9,117.3
010014,BRADFORDALE,-30.6056,117.5667
010015,BROOKLEA,-31.6,116.5
010016,BRUCE ROCK,-31.8775,118.15
010017,BUNGULLA NORTH,-31.5547,117.5858
010018,BURAKIN,-30.5325,117.1739
010019,BURRACOPPIN,-31.3958,118.4808
010020,WANOBBING,-31.9167,116.9667
010021,NORTH BEACON,-30.2008,117.9389
010022,CARDONIA,-31.5,117.8025
010023,WARRADONG FARM,-31.5003,116.9411
010024,CASUARINA VALE,-31.1631,116.8575
010025,HELENA RIVER,-31.9389,116.4261
010026,GOODLANDS,-30.0606,117.1417
010027,EADINE,-31.7167,116.5167
010028,CLEARY,-30.4333,117.65
010029,CLEARY SOUTH,-30.5311,117.6675
010030,WATTONING,-30.7767,118.1992
010031,YORKRAKINE TBRG,-31.3742,117.5861
010032,COWCOWING,-30.9964,117.3953
010033,COWCOWING CENTRAL,-30.9,117.4667
010034,FORT HILL,-31.7272,118.2931
010035,CUNDERDIN,-31.6494,117.2331
010036,YOUNDEGIN,-31.7972,117.3614
010037,CUTTENING,-31.7264,117.7644
010038,DANDANNING,-31.0064,118.1975
010039,DOODARDING WELL,-31.0072,117.2042
010040,DOODLAKINE,-31.6089,117.8775
010041,DOONGIN PEAK,-31.6192,117.4372
010042,DOWERIN,-31.1936,117.0311
010043,CALJIE,-31.7661,116.9167
010044,BUNGULLA,-31.6231,117.5431
010045,EJANDING,-31.0114,117.1336
010046,ELLABIN,-31.2,118.1
010047,GUM PARK,-31.0467,118.1514
010048,WYOLA SOUTH,-31.7167,117.3833
010049,ENDOMOORE,-30.3333,117.5167
010050,ERIKIN,-31.9333,117.8833
010051,REMLAP,-30.1403,117.57
010052,ALEPPO,-31.4453,117.2219
010053,FRIARS WELL,-31.7233,118.4372
010054,MOUNT PLEASANT FARM,-30.9,117.8
010055,GABBIN,-30.7997,117.6806
010056,INKPEN,-31.8042,116.4169
010057,GOODLANDS 2,-30.1,117.1
010058,GOOMALLING,-31.2994,116.8269
010059,GOOMARIN,-31.2347,118.4208
010060,GRABALL,-31.9889,118.5106
010061,HAPPY VALLEY,-31.1417,116.9558
010062,ELY PARK,-31.2347,116.8819
010063,HAWTHORNDEN,-31.5136,116.4583
010064,BOLGART BIN,-31.2747,116.5075
010065,JENNABERRING,-31.9,117.5
010066,JENNAPULLIN,-31.5167,116.7
010067,JOUERDINE SOUTH,-30.7286,118.4147
010068,WHITE WELLS,-29.5817,116.9644
010069,JUROKINE,-31.3,116.6
010070,KALANNIE,-30.3686,117.1133
010071,KARLONING,-30.6447,118.13
010072,KELLERBERRIN SOUTH,-31.7211,117.6586
010073,KELLERBERRIN,-31.6183,117.7217
010074,KIRAMI,-31.0,117.9
010075,MOUNT GIBSON,-29.6061,117.4106
010076,KONNONGORRING,-31.0597,116.7319
010077,KOORDA,-30.825,117.4825
010078,KORRELOCKING POST OFFICE,-31.2,117.4833
010079,FAIR VIEW,-31.95,118.5833
010080,JINGYMIA,-30.5006,117.4028
010081,KULJA,-30.4667,117.2833
010082,KUNUNOPPIN,-31.1125,117.9186
010083,THE PINES,-31.3725,118.1961
010084,GLAMOFF,-30.1056,117.3597
010085,LANAUBRA,-31.3,118.0
010086,LAKE BROWN,-30.9333,118.3333
010087,GLENROE,-31.9667,116.8667
010088,WALLAMABIN PARK,-30.95,117.5333
010089,LONG FOREST,-31.3489,116.65
010090,MANGOWINE,-31.0,118.1
010091,MECKERING,-31.6322,117.0081
010092,MERREDIN,-31.4756,118.2789
010093,MERREDIN RESEARCH STATION,-31.4994,118.2242
010094,NEILBOROUGH,-30.9069,118.1792
010095,MILLSTON,-31.5936,118.2347
010096,MOLLERIN POST OFFICE,-30.4594,117.5217
010097,MONINGARIN,-30.6569,117.2625
010098,MOORLANDS,-31.9,117.6
010099,MOUNT CAROLINE,-31.8,117.6
010100,KURRAJONG,-31.7983,118.5458
010101,MOUNT MARSHALL EAST,-30.9,118.0
010102,MUKINBUDIN,-30.9153,118.2105
010103,MUNTADGIN,-31.7578,118.5603
010104,NANYANINE,-31.4025,117.7239
010105,GILAVIN,-30.6297,117.3675
010106,NUKARNI,-31.2944,118.1997
010107,MOUROUBRA,-29.7986,117.7044
010108,NOKANING,-31.3261,118.2464
010109,NOONEGIN,-31.8833,118.1333
010110,NORPA,-31.5833,118.4167
010111,NORTHAM,-31.6508,116.6586
010112,NUNGARIN,-31.1842,118.1006
010113,PANTAPIN,-31.95,117.6533
010114,PROSPECT,-30.8833,117.8
010115,QUELLINGTON,-31.7714,116.8647
010116,QUONDONG,-31.5397,117.4781
010117,RABBIT FENCE 90 MILE,-30.1,118.5
010118,BREAKELL,-31.9917,118.0264
010119,KITLANE,-31.795,118.3947
010120,DOODENANNING,-31.9092,117.0986
010121,TAMMIN,-31.6431,117.4872
010122,TELENNING HILL,-31.8308,117.4875
010123,THE GRANITES SHACKLETON,-31.9925,117.9325
010124,NANGEENAN,-31.5178,118.1694
010125,TOODYAY,-31.5517,116.4703
010126,TRAYNING,-31.1153,117.7942
010127,TRESILLIAN,-31.7,117.9
010128,WADDERIN,-32.0,118.4
010129,MOUNT NODDY,-31.5866,116.8862
010130,BADGETOPPIN,-31.65,117.8
010131,CULHAM,-31.4,116.4667
010132,MOUNT HARDEY,-31.9209,116.8151
010133,WALK WALKIN,-30.8256,117.3228
010134,WATTENING,-31.3119,116.515
010135,WIALKI,-30.4869,118.1258
010136,WIALKI SOUTH,-30.5892,118.1489
010137,WIALKI NORTH,-30.3294,118.0872
010138,WOOROLOO,-31.815,116.3413
010139,WOOTTATING,-31.9,116.5
010140,WYALKATCHEM,-31.1806,117.3797
010141,XANTIPPE,-30.2897,117.0108
010142,GABBIN NORTH,-30.645,117.6833
010143,YGNATTERING,-31.415,117.2664
010144,YORK POST OFFICE,-31.8836,116.7581
010145,YORKRAKINE,-31.3756,117.5853
010146,KALGUDDERING,-31.0,116.8
010147,MULJI VALE,-30.74,117.61
010148,WYDON,-31.35,118.15
010149,CODG CODGEN,-31.3361,117.8164
010150,GRASS VALLEY,-31.6358,116.7969
010151,HINES HILL,-31.5317,118.0986
010152,MURESK INSTITUTE,-31.75,116.6833
010153,CRAEMOR,-31.1028,118.0167
010154,MINNIVALE POST OFFICE,-31.1433,117.1817
010155,CADOUX,-30.7686,117.1361
010156,CALINGIRI,-31.0906,116.4522
010157,CANAAN FARM,-31.2506,117.3436
010158,BERIA,-30.4072,118.2797
010159,WALGO,-31.05,116.5
010160,QUELLA PARK,-31.4533,117.1194
010161,YELBENI,-31.1708,117.6614
010162,WERRIBEE BOYS HOME,-31.7833,116.3667
010163,JAROMA,-31.7706,117.1433
010164,BUCKLANDS,-31.5667,116.6167
010165,GREEN HILLS,-31.9408,116.9839
010166,SOUTHBOURNE,-31.7381,116.4928
010167,AYLESBURY,-30.3,117.4
010168,BALLYMENA,-31.7,117.2
010169,BENCUBBIN NORTH,-30.7,117.9
010170,BENJABERRING,-31.15,117.2833
010171,BRUCE ROCK SOUTH,-31.9,118.2
010172,BUDGEREE,-31.2,118.5
010173,BUNGULLUPING,-31.9,118.25
010174,BURRACOPPIN SCHOOL,-31.4,118.5
010175,BYANDA,-31.5,118.0
010176,CAMALLIE,-31.0167,117.8
010177,CHINKYMIA,-30.5,117.4
010178,CLAFFERTY SOAK,-30.4,117.7
010179,CLOVELLY,-31.1,117.75
010180,COBHAM,-31.8,116.7
010181,COLLGAR,-31.6083,118.3833
010182,YELBENI SOUTH,-31.2833,117.7
010183,DALGOWRING NORTH,-30.3,118.0
010184,DRESDEN,-30.7833,118.0
010185,ENGOBLEEN,-30.8,118.2
010186,EUMALGA,-31.55,116.4
010187,GLEN ERIN,-31.9,118.25
010188,GOOMEARIN EAST,-31.2,118.5
010189,GREENS FARM,-31.1,117.5
010190,ECCLESTON,-31.4,117.8
010191,JIBBERDING,-30.0,116.85
010192,JOURERDINE,-30.5539,118.2828
010193,KAILOA,-31.4019,117.2717
010194,KANIMBLA,-31.8,117.0
010195,KARARA,-29.2392,116.7122
010196,KOOMBERKINE,-31.1,117.0167
010197,KARINIA,-31.1,117.95
010198,QUAILING,-31.8,117.8
010199,KWOLYIN,-31.9,117.7
010200,SUNNYSIDE,-31.1,118.25
010201,LAKE GRADY,-30.4,117.4
010202,KOONDA,-30.7,117.25
010203,SPRINGDALE,-31.3,117.8
010204,LONGWOOD FARM,-31.1,118.3
010205,LOTHIAN,-31.9,117.7
010206,LOVELL HILL,-31.9,117.9833
010207,MAITLAND,-31.2,118.4
010208,MADINGA,-30.8,117.8
010209,MINDABOOKA,-31.5,118.0167
010210,MINDETHANA,-31.1,118.4
010211,MININGBROOK,-31.0,116.7
010212,MINNIBERRIE,-31.25,117.9
010213,MOMBERKINE,-31.4,116.7
010214,MYOLA,-31.5,117.75
010215,MOWBRAY,-31.6,117.8
010216,MUNGAN,-30.75,117.75
010217,NEWLANDS,-31.0333,117.5
010218,WALLAMBIN SOUTH,-31.0333,117.4167
010219,NITTYMARRA HILLS,-31.0,116.6
010220,QUELAGTTING,-31.4,117.1
010221,RPF 69 MILE,-30.4,118.5
010222,RIBBLETON,-30.75,117.9
010223,RONALDSTON,-30.75,118.3
010224,SOUTHERN BROOK,-31.6,116.8
010225,TALGOMINE DOWNS,-31.2,118.5833
010226,TAMMATON,-31.2,116.9
010227,TOONGA,-31.4,117.5
010228,UCARTY,-31.35,117.1
010229,WADDOURING,-30.9,117.9
010230,WAEEL,-31.6155,117.0618
010231,WALGORMOURING,-31.2,116.9
010232,WEERONA,-30.5,118.35
010233,WELBUNGIN NORTH,-30.55,118.0
010234,WHITEHAVEN,-31.9,117.4
010235,WILGOYNE,-30.8,118.45
010236,WYENING,-31.15,116.5
010237,KORRELOCKING SOUTH,-31.3,117.4833
010238,MOLLERIN NORTH,-30.3092,117.4458
010239,YARRIGIN,-31.0,117.95
010240,YENELIN,-31.8,117.2
010241,YOOLELLA,-31.85,117.25
010242,YOTING,-31.9,117.6
010243,FAIRFIELDS,-31.4972,117.5894
010244,BAKERS HILL,-31.7469,116.4561
010245,BERRING,-31.3042,116.9019
010246,COORINGA,-31.6,116.4697
010247,BLUE VALLEY,-31.7167,116.5333
010248,MERREDIN PUMP STATION NO.4,-31.4931,118.2456
010249,NORTH BENCUBBIN,-30.6731,117.9267
010250,REDWING,-31.135,116.9242
010251,DANBERRIN,-31.2867,118.0592
010252,GLEN OBAN,-31.85,116.6667
010253,KWOLYIN POST OFFICE,-31.95,117.7667
010254,NARRAGIL BRK,-32.8,116.25
010255,KANBANAH,-31.3333,117.1533
010256,MANMANNING,-30.8333,117.1
010257,SPRING VALLEY,-31.5094,117.7681
010258,ABERVON,-30.7833,117.9833
010259,BIRAHLEE,-31.3236,116.37
010260,BIMBIJY,-29.6981,118.0397
010261,SOUTH DOODLAKINE RADAR,-31.777,117.9529
010262,CLACKLINE,-31.7183,116.5161
010263,CARILEE,-31.7833,118.0
010264,KENANDRA,-30.1547,117.8214
010265,MILL HILL,-30.6167,117.8333
010266,TAYLOR,-31.2333,116.9667
010267,CARRILEE FARM,-31.7167,118.05
010269,BERRING,-31.2708,116.9231
010270,MOUNT GIBSON,-29.5833,117.15
010271,PEMBROKE,-31.1,117.3667
010272,RPF 7 MILE,-31.55,117.2667
010273,RPF 141,-29.7333,116.6667
010274,TALGOMINE DOWNS,-31.2167,118.35
010275,UBERIN,-31.0,117.0
010276,KORBEL,-31.6,118.1167
010277,YALKYN,-31.6,117.9167
010278,WHITE WELLS,-29.5,116.95
010279,WUBIN DOWNS,-30.1333,117.15
010280,WYDON,-31.3667,118.1333
010281,CRAIGLANDS,-31.7667,116.3
010282,STRATHMORE,-31.1,117.2
010283,SHACKLETON,-31.9331,117.8356
010284,TOONJA,-31.2333,117.5
010285,CROMLECH FARM,-30.9,117.9822
010286,CUNDERDIN AIRFIELD,-31.622,117.2282
010287,SHAW,-31.5261,117.5631
010288,COOLBEENIE FARM,-31.7839,116.395
010289,GLENAVON,-31.7364,117.415
010290,DYARD,-30.4025,117.5367
010291,HOLMFIELD,-30.6756,117.6044
010292,JENNACUBBINE,-31.4106,116.7175
010293,KOOLYARLEE,-31.8,118.6
010294,COODERNUPPIN,-31.5736,117.5097
010295,BALKULING NORTH,-31.9067,117.2336
010296,CHINGAH,-31.6833,118.3833
010297,CAMPION,-31.0333,118.5
010298,KOONADGIN,-31.5594,118.5819
010299,WANDI FARM,-30.9,118.5
010300,CAMPION WEIRA,-30.9972,118.4233
010301,BINDOON ARMY,-31.2458,116.2714
010302,GIDGIE SPRINGS,-31.6681,116.2731
010303,JULIMAR FARMS,-31.5069,116.3081
010304,NUNILE,-31.4868,116.5383
010305,DE-ERANNING,-30.7261,118.4219
010306,TASCOSA,-30.6042,117.2275
010307,QUADNEY,-31.7936,116.6278
010308,TOODYAY EAST,-31.55,116.4867
010310,WERRIBEE,-31.7718,116.3263
010311,YORK,-31.8997,116.765
010500,ALDERSYDE 2,-32.4333,117.3167
010501,ALDERSYDE POST OFFICE,-32.3667,117.2833
010502,AMELUP,-34.2553,118.2214
010503,ARDATH,-32.0504,118.0684
010504,OAK PARK,-34.0811,117.5181
010505,ARTHUR RIVER,-33.3392,117.035
010506,BENALLA,-34.1467,117.3961
010507,BABAKIN,-32.1242,118.0222
010508,BADGEBUP,-33.6361,117.9278
010509,BALLY BALLY,-32.18,117.0983
010510,BAROOGA,-33.1642,116.7992
010511,WICKEPIN SOUTH,-32.8022,117.5025
010512,BEAUFORT,-33.5233,117.0483
010513,BENDERING,-32.3869,118.2622
010514,BENDERING POST OFFICE,-32.3833,118.3
010515,BEVERLEY,-32.1083,116.9247
010516,WANDERIN,-32.2,117.9
010517,BOONGADOO,-33.5,118.0
010518,BOORALEE,-32.4006,118.6058
010519,BORDEN,-34.0717,118.2628
010520,BOSCABEL,-33.6614,117.0539
010521,BRAESIDE 2,-32.6667,116.8
010522,JENNACUBBINE,-31.4167,116.7167
010523,GNOWANALLUP,-33.5833,118.2333
010524,BROOKTON,-32.3728,117.0086
010525,BROOMEHILL,-33.8441,117.6437
010526,BROOMEHILL EAST,-33.8269,117.8594
010527,BULYEE,-32.3686,117.5214
010528,BUNKIN,-33.2472,117.6614
010529,WOODLANDS,-33.7494,117.3742
010530,CHAMINGUP,-33.9144,117.0994
010531,CHERRY TREE,-33.6964,117.2669
010532,CHIRELILLUP,-33.9653,118.0675
010533,COCANARUP,-33.6369,119.8853
010534,COLORADO,-32.4825,117.5647
010536,CORRIGIN,-32.3292,117.8733
010537,CRANBROOK,-34.2958,117.5533
010538,CUBALLING,-32.82,117.1775
010539,MILYUNUP,-34.1792,117.6428
010540,KENILWORTH TU,-32.4667,116.8
010541,NYERILUP,-33.8594,118.8158
010542,DARKAN,-33.3369,116.7428
010543,DARTNALL,-34.0414,117.7428
010544,DELLYANINE,-33.3956,117.0944
010545,DUDININ,-32.8714,117.9042
010546,DUMBLEYUNG,-33.3139,117.7422
010547,DURANILLIN,-33.5167,116.8014
010548,DURRUNOOK,-33.5,118.2
010549,DYLIABING,-33.5333,117.9167
010550,EDENHOLME,-33.2658,118.4861
010551,CHINOCUP,-33.5833,118.3
010552,EMU HILL,-32.1,118.3667
010553,GINGARING,-32.4333,117.4
010554,GLEN LOSSIE,-33.8167,117.1667
010555,RPF 57 MILE,-32.3167,117.8
010556,COONDEE,-32.4814,116.8097
010557,GNARMING,-32.6,118.3
010558,GNOWANGERUP,-33.9372,118.0075
010559,GORGE ROCK,-32.5,118.0
010560,GRAHAM ROCK,-32.5403,119.1122
010561,RUSHY POOL,-33.0272,117.3878
010562,GUNNERSIDE,-33.1639,118.2528
010563,HIGHBURY,-33.0589,117.2342
010564,HILLCROFT,-32.3472,116.8553
010565,HOLT ROCK,-32.6744,119.4144
010566,HORSESHOE,-33.5708,117.2022
010567,HUCKNELL,-32.2,118.3
010568,HYDEN,-32.4419,118.8983
010569,HYDEN ROCK SOUTH,-32.5,118.9
010570,JACOBS WELL,-32.0,117.2
010571,JALNA,-32.3789,116.8258
010572,JAM VALE,-34.2675,118.5064
010573,JINGALUP,-33.9,117.0333
010574,JITARNING,-32.7833,118.0
010575,DUNA,-32.5,118.0333
010576,KARLGARIN,-32.5,118.7089
010577,KARLGARIN HILL,-32.4828,118.5842
010578,KARLGARIN SOUTH,-32.6,118.6
010579,KATANNING COMPARISON,-33.6886,117.5553
010580,KAYBALLUP,-33.7822,119.9436
010581,KING ROCKS,-32.2894,119.1358
010582,KOJONUP,-33.83,117.159
010583,KONDININ,-32.4947,118.2675
010584,KULIN,-32.6719,118.1547
010585,KULIN ROCK,-32.6,118.15
010586,KUMMININ,-32.0081,118.2319
010587,KUMMININ SOUTH,-32.2,118.3333
010588,KURINGUP,-33.5303,118.305
010589,KWOBRUP,-33.61,117.9878
010590,CAROLING SOUTH,-32.15,117.4
010591,LAKE BIDDY,-32.9875,118.9394
010592,LAKE GRACE COMPARISON,-33.1006,118.4625
010593,LAKE KING,-33.0872,119.6758
010594,LAKE MAGENTA,-33.3333,119.1686
010595,PINGRUP SOUTH,-33.6514,118.5517
010596,LAKE PINGRUP,-33.4117,118.5111
010597,VARLEY,-32.7964,119.5094
010598,LILYDALE,-33.1975,116.9106
010599,LINTON,-33.1,117.3
010600,NANDA DOWNS,-33.6067,118.4292
010601,MAGIWIRUP,-34.1733,117.2589
010602,MALYALLING,-32.6983,117.6542
010603,HARTWOOD,-32.4231,118.2003
010604,MAYBROOK,-33.4,116.9
010605,MINIGIN,-32.9089,117.0536
010606,LAKE CAMM,-32.9267,119.5775
010607,CRAIGIE-LEA,-32.7608,118.1925
010608,MOANA,-34.1333,118.25
010609,MOULYINNING,-33.2267,117.9292
010610,NAVARRE,-33.2,119.8
010611,MOUNT MADDEN,-33.2761,119.7753
010612,NAREMBEEN,-32.0656,118.3956
010613,NARROGIN STATE FARM,-32.9333,117.1167
010614,NARROGIN,-32.9342,117.1797
010615,NEEDILUP,-33.9833,118.8
010616,NEENDALING,-33.0833,118.3333
010617,NEWDEGATE,-33.0939,119.0236
010618,NEWDEGATE SOUTH,-33.1794,119.1008
010619,NYABING,-33.5424,118.1476
010620,OAKLAND,-32.3044,116.6358
010621,OMEO,-32.9,118.8
010622,ONGERUP,-33.9634,118.4788
010623,PALLINUP,-33.9431,117.8514
010624,WYNROCK,-32.5167,117.3
010625,PINGARING,-32.7533,118.6267
010626,PINGELLY,-32.5336,117.0831
010627,PINGRUP,-33.5347,118.5092
010628,QUAIRADING,-32.0094,117.4014
010629,QUANAMINNING,-32.7867,117.7861
010630,QUARLIMING FARM,-33.45,118.1
010631,QUINDANNING,-33.0333,116.5667
010632,RPF 129 MILE,-32.9,119.9
010633,RAVENSTHORPE,-33.5803,120.0458
010634,REDLANDS,-32.3108,116.7675
010635,RIVERDALE,-33.7853,116.9064
010636,THE OAKS,-33.1567,117.6706
010637,ROSELEA,-33.0433,118.1025
010638,ST ALBANS,-32.5228,118.3047
010639,SHACKLETON POST OFFICE,-31.9333,117.8333
010640,JERRAMUNGUP LIGHTNING,-33.9503,118.9203
010641,MAYBROOK,-33.375,116.9053
010642,TALBOT HOUSE,-32.1,116.75
010643,TAMBELLUP,-34.0444,117.6419
010644,BATHURST,-33.1256,118.1961
010645,TILSDOWN FARM,-33.2833,117.0
010646,COLUNIO,-32.9,117.6
010647,WAGIN,-33.3075,117.3403
010648,WANDERING COMPARISON,-32.6814,116.6756
010649,WAYVILLE,-33.5253,117.6456
010650,TINKURRIN,-33.0,117.75
010651,CLOUGHTON,-32.2925,116.6708
010652,WESTHOLME,-32.3,117.6
010653,WIALCUTTING,-32.0789,117.8656
010654,WICKEPIN,-32.7822,117.4992
010655,WILLIAMS,-33.0269,116.8792
010656,WIRRA,-34.125,118.415
010657,NAIRIBIN,-33.3556,117.9161
010658,WONNAMINTA,-32.8331,116.9911
010659,WOODANILLING,-33.5636,117.4336
010660,WYCHITELLA,-32.7044,118.3103
010661,NARRAWONG,-33.8,117.3942
010662,YEALERING,-32.5936,117.6214
010663,YEALERING STATE SCHOOL,-33.0,118.0
010664,CROOKED POOL,-32.9008,117.3986
010665,KUKERIN,-33.1886,118.0839
010666,LOCHNAGAR,-32.0394,118.9022
010667,NIPPERING,-33.3,117.6
010668,KOORIKIN,-32.4692,118.1458
010669,ELLENSFIELD,-34.0,117.5
010670,LAKE CARMODY,-32.4831,119.3625
010671,AVOCA,-33.1361,117.8814
010672,JERRAMUNGUP,-33.9167,118.95
010673,MINELUP STATION,-33.4,118.7
010674,RPF 173 MILE,-33.4,120.2167
010675,JELCOBINE,-32.5,116.8
010676,NICKELIN,-33.2,117.7
010677,NARROGIN LIGHTNING,-32.9539,117.1939
010678,LANDSCAPE HILL,-32.5167,117.3667
010679,NALYA,-32.4,117.1667
010680,TAMBARMERING,-32.5667,117.8689
010681,CROVIE,-32.6,117.2
010682,KING ROCK 2,-32.3,119.1
010683,KUNDIP,-33.7,120.2
010684,KURREN KUTTEN,-32.2,118.1
010685,LAKESIDE,-32.2867,117.2525
010686,MUNSLEY,-33.5025,119.9711
010687,WANDERING BROOK,-32.5728,116.7064
010688,WINDY RIDGE,-33.45,117.0
010689,JACUP DAM,-33.8272,119.2483
010690,NUNKERI,-33.4808,119.9622
010691,KURRARA PARK,-33.0964,117.4047
010692,NEWDEGATE RESEARCH STATION,-33.1129,118.84
010693,WOOGANUP HEIGHTS,-33.7661,119.5583
010694,TWOLGANUP,-33.9956,117.9164
010695,WISHBONE 2,-33.25,117.85
010696,AMRISTA PARK,-32.6597,118.6319
010697,CARLINGUP,-33.5667,120.1833
010698,WHITE HOUSE FARM,-32.6258,118.5614
010699,MINDARABIN,-33.7136,118.1897
010700,KOJONOLOKAN HILLS,-33.4972,117.3131
010701,KILBURNIE,-33.8922,117.4283
010702,MOUNT WALKER,-32.1003,118.8058
010703,YLADGEE,-33.9475,118.1125
010704,BALLAYING,-33.3281,117.5628
010705,HYDEN NORTH,-32.3231,118.8264
010706,JESMOND,-32.8,118.5025
010707,JERRAMUNGUP,-33.9414,118.9203
010708,NORTH STIRLINGS,-34.2208,117.9811
010709,BREMER BAY POST OFFICE,-34.4,119.4
010710,BEAUFORT PLAINS,-34.3817,118.8233
010711,DALE BRIDGE,-32.0667,116.8167
010712,SUNNYSIDE,-33.9,117.6
010713,ALADALE,-32.65,116.9833
010714,ARALUEN,-34.0,118.1
010715,BARRACUP,-34.1967,117.7689
010716,BARRINGTON,-32.0,117.0
010717,BEENING,-32.5,117.7
010718,BELLEVUE,-33.2667,117.6167
010719,BEVERLEY RAILWAY,-32.1,116.9
010720,WOGERLIN,-32.2,117.9
010721,BOYALLING,-33.4,117.1
010722,BOYNING,-32.8,117.5
010723,BRAEFIELD,-32.9833,117.0
010724,BUDGINEE,-32.1,117.4
010725,CONGEE,-33.4458,117.6614
010726,CAMEL PEAKS,-32.2833,118.7833
010727,CARRACERUP,-34.1,118.7
010728,CHERALILLUP,-33.5,117.9833
010729,CHILLINUP,-34.3439,118.6306
010730,CHYBARLIS,-32.6,116.9
010731,CLEAR HILLS,-33.9,117.9
010732,COLLANILLING,-33.2,117.6
010733,DEEPLISH,-32.8,118.05
010734,DOREENUP,-33.8,117.25
010735,DULWICH HILL,-32.75,118.6
010736,GAINSBOROUGH,-33.3,117.3
010737,GILLIMINNING,-32.7,117.4
010738,GINGINNING,-32.7,117.7
010739,GLENCOVE,-33.5,117.6
010740,GLEN ERNE,-32.55,116.9
010741,GLEN ORA,-32.6,117.4
010742,RPF 52 MILE,-32.2167,117.6833
010743,GUNDARING,-33.3,117.3
010744,GWAMBYGINE,-32.0,116.8
010745,GREENLANDS,-32.2,117.75
010746,EAST HYDEN,-32.3642,119.1986
010747,KARLGARIN EAST,-32.4972,118.7167
010748,KILCOAN,-32.55,118.45
010749,KOOLBERIN,-32.1,118.2
010750,TIMBER HILLS,-32.7286,117.8167
010751,KULYALLING,-32.5,116.9833
010752,KUNJIN,-32.4,117.75
010753,KURRENKUTTEN SOUTH,-32.3,118.1
010754,KWEDA,-32.4,117.4
010755,LAKE JILAKIN,-32.7,118.4
010756,LA LEONESA,-32.9,116.7
010757,LOMOS,-32.4,117.6
010758,MAILEUP,-34.1,118.2
010759,MEDDERBERRIN,-32.5,116.9833
010760,MOODIARUP,-33.6,116.8
010761,MORFIELD PARK,-32.1,117.6
010762,MUNDEROCKING,-32.1,117.1
010763,MOUNT KOKEBY,-32.2,116.9833
010764,MOUNT SHORT,-33.4667,119.95
010765,MOURCOURUP,-34.2,118.3
010766,NABALLING,-33.5,117.5
010767,NALLIAN,-33.2,117.4
010768,CONNELL,-33.9833,118.8
010769,ONGERUP ROCK,-33.9,118.4
010770,PIESSEVILLE,-33.2,117.3
010771,MOIRA DOWNS,-33.4,118.7
010772,POPANYINNING,-32.7,117.2
010773,RIVERVIEW,-32.7,116.8
010774,SENNOCKE,-32.8,116.8
010775,SORRENTO,-33.9833,117.4
010776,SOUTH CAROLING,-32.2072,117.4042
010777,STOCK HILL,-32.3,116.9833
010778,STRACHANLY,-33.6,120.2
010779,MIANELUP,-34.0042,118.0536
010780,SUNNINGHILL,-32.4,117.0167
010781,TINGERUP,-34.1,117.7
010782,TOOLBRANUP,-34.0167,117.9
010783,WELCOME HILLS,-32.0,118.8
010784,WHITE WELLS,-33.3,117.5
010785,WHITVILLE,-33.4,118.0
010786,WICKEPIN WEST,-32.8,117.5
010787,WONDILLON,-32.1,118.1
010788,WOODLANDS,-33.5,117.4
010789,MOINGUP SPRINGS,-34.4003,118.1033
010790,WOODYARRUP,-33.9,117.75
010791,YORNANING,-32.75,117.2
010792,GAIRDNER,-34.2264,118.9369
010793,TARWONGA,-33.2114,116.9919
010794,GLEN VALE,-33.15,118.0167
010795,AVONDALE FARM,-32.1178,116.8678
010796,ELVERDTON,-33.6333,120.1333
010797,LAKE TOOLBRUNUP,-34.2561,117.9261
010798,COORANDERK,-32.4,117.1
010799,WEST KULIN,-32.6339,118.0103
010800,CLOVELLY,-33.3225,117.2078
010801,LIGHTWOODS,-33.6506,116.7156
010802,TANAMI,-33.4661,118.6361
010803,MARIA,-33.0114,118.2389
010804,DARKAN SABAH,-33.35,116.9
010805,MAGENTA FARM,-33.4333,119.25
010806,FALCONDALE - EDEOWIE,-33.2706,118.2606
010807,BILBARIN,-32.1842,117.9675
010808,GUNGUNNU,-32.9167,118.4833
010809,FALCONDALE,-33.2708,118.3572
010810,MALYALLING ROCK,-32.7167,117.6067
010811,NTH RAVENSTHORPE,-33.1806,120.0883
010812,ROOKVIEW,-32.8167,118.7
010813,HOLT ROCK 2,-32.7644,119.2956
010814,BALKULING NORTH,-31.9167,117.2333
010815,PEENEBUP,-34.1217,118.3333
010816,BEAUMONT,-33.2064,117.6994
010817,BOX GLEN,-34.0,118.9167
010818,ILLOURA,-33.5694,116.8933
010819,KATTAGANNA,-33.7344,119.1
010820,AVON DOWNS,-32.55,116.55
010821,AVON GROVE,-32.55,117.55
010822,GNARMING 2,-32.6,118.2
010823,GLENMORE,-32.2344,117.6444
010824,MARRA,-34.4058,118.7439
010825,TAMBAROORA,-32.9425,117.5683
010826,HORSHAM FARM 2,-32.0833,118.55
010827,MERILYN,-34.1,117.4833
010828,STONEY CROSSING,-32.3833,117.1333
010829,MAGEDUP,-33.9167,118.5333
010830,LAKE CARMODY,-32.5167,119.2333
010831,GLENROSE,-33.4836,117.61
010832,WISHBONE JAMES,-33.2833,117.9
010833,MERRILUP,-33.35,118.2167
010834,BILBARIN,-32.2,117.9667
010835,SHOOTERS HILL,-34.1483,118.1911
010836,GREENSLOPES,-32.7667,116.5833
010837,RPF 101 MILE,-32.95,117.9167
010838,MARNINGARUP,-34.1,119.1667
010839,AMAROO,-32.9258,117.6258
010840,MAGENTA SOUTH,-33.5,119.2167
010841,CORNADO,-32.3833,118.4333
010842,MURADUP,-33.85,116.9833
010843,BURRA BURRA,-32.3333,116.5333
010844,MOUNT ARROWSMITH,-32.15,118.4333
010845,BURKETT ROCKS,-33.1,119.85
010846,NAMPUP,-33.55,118.1
010847,GORDON VALE,-32.1167,118.4
010848,QUALIN,-32.2833,117.2667
010849,MYOORA,-34.2647,118.8281
010850,PYNUP,-34.2833,117.55
010851,MINNI DOWNS,-32.8192,119.2936
010852,LOS NEGROS,-33.6833,119.45
010853,BAKER ROCK,-33.1167,118.2333
010854,WILLAMINUP,-33.95,117.9333
010855,LAKE FOX,-32.85,119.5333
010856,RPF 177 MILE,-33.7833,118.5333
010857,RPF 118 MILE,-33.1833,117.9
010858,JUBUK,-32.3167,117.6833
010859,KIA ORA,-32.9,119.5333
010860,NORTHUMBERLAND,-33.8667,116.85
010861,RED FLAG,-34.05,117.8333
010862,KENMERE,-33.55,117.3167
010863,WOOD GREEN,-32.1,117.35
010864,GEETABIN,-32.6,117.9333
010865,LUMEAH,-34.0333,117.2667
010866,CRANHAM,-33.9317,117.3258
010867,ROCK HILL,-33.205,117.2897
010868,TERESA DALE,-33.9931,117.2756
010869,CARLINGUP,-33.5942,120.1833
010870,MAINNERUP,-33.6914,119.6618
010871,DULBELLING,-32.0667,117.25
010872,DUNELM,-33.1722,118.2475
010873,CHERYTON,-33.9678,117.1514
010874,WATTLE DALE,-34.0161,117.2297
010875,OVERTON,-33.9036,117.175
010876,CAERNARVON PARK,-32.7353,116.8381
010877,COOMPERTUP,-33.7139,119.5403
010878,CHESALON,-33.5557,119.5775
010879,MILEURA,-33.59,118.2783
010880,GOLDEN PARK,-34.3131,118.9894
010881,GIBB ROCK,-32.1336,119.0261
010882,WARRA JARRA,-34.3997,118.8867
010883,CARROLUP RIVER,-33.65,117.2667
010884,SHERAWANYAH,-33.8592,118.125
010885,TALBOT BROOK,-32.0167,116.6667
010886,WILYAMA,-32.4233,117.2783
010887,KENMERE,-33.55,117.3167
010888,DWARDA DOWNS,-32.8125,116.6931
010889,MORDETTA,-32.885,118.6347
010890,GNAMMA,-33.6467,120.4319
010891,STRATHMORE,-34.3,117.5
010892,BERAKIN FOREST,-31.9,116.4
010893,THE WARRIUPS,-34.3078,117.4347
010894,ALLAN ROCKS,-32.6322,119.0958
010895,MONTE VISTA,-33.3994,119.9344
010896,YOOROOGA,-33.4331,120.1178
010897,NALYERLUP,-34.2206,118.5042
010898,AKOONAH,-33.2297,119.9242
010899,LAKE GRACE CATCHMENT,-33.1044,118.4897
010900,DESERT FRINGE,-32.9297,119.8367
010901,KARINGAL,-33.8731,118.2003
010902,FITZGERALD,-33.7781,119.5019
010903,KARINGAL-TINCURRIN,-32.9258,117.7994
010904,SWANARA,-32.1717,118.6136
010905,JACUP,-33.8878,119.1092
010906,KUNJIN,-32.3275,117.7206
010907,THORNTON PARK,-32.4842,116.7042
010908,YANGEDINE,-32.0294,116.8742
010909,FOLLANS,-32.6756,116.7789
010910,WYONNING,-32.6764,117.2708
010911,LAKE GRACE,-33.1006,118.4647
010912,YEALERING EAST,-32.5878,117.6408
010913,WARUP,-33.3289,117.1844
010914,BELLAVISTA,-34.2064,117.7117
010915,YORNANING WEST,-32.75,117.0667
010916,KATANNING,-33.6856,117.6064
010917,WANDERING,-32.6722,116.6706
010918,CHILLICUP,-33.9167,117.6125
010919,WILGARRA,-32.6944,116.6135
010920,MOUNT WESTDALE,-32.2683,116.6745
010921,INGLEBOURNE,-34.2351,118.2224
010923,WILLIAMS NORTH,-33.0042,116.8511
010924,NEWDEGATE RADAR,-33.0969,119.0089
010925,QUAIRADING EAST,-32.0047,117.4134
010928,LOL GRAY,-32.828,116.822
011000,BALLADONIA 2,-32.45,123.8667
011001,DEAKIN,-30.77,128.965
011002,TRANS RAILWAY 857,-31.0,125.5833
011003,EUCLA,-31.6797,128.8958
011004,FORREST AERO,-30.8389,128.1139
011005,FORREST RAILWAY,-30.85,128.1
011006,HAIG,-31.0064,126.0889
011007,LOONGANA,-30.9464,127.0356
011008,MUNDRABILLA STATION,-31.8433,127.8572
011009,NANAMBINIA,-32.6681,123.5831
011010,NOONDOONIA,-32.3114,123.7261
011011,NOONDOONIA O.S.,-32.1461,123.9683
011012,NURINA,-30.9875,126.5483
011013,RAWLINNA,-31.0119,125.3294
011014,REID,-30.8217,128.425
011015,MUNDRABILLA SIDING,-30.9025,127.535
011016,MADURA STATION,-31.9269,126.9733
011017,BALLADONIA,-32.4569,123.8653
011018,BALBINIA,-33.1,123.6
011019,EYRE,-32.2464,126.3008
011020,ISRAELITE BAY,-33.6,123.8
011021,POINT MALCOLM,-33.8,123.7
011022,OLD EUCLA,-31.7117,128.8867
011023,CAIGUNA ASA,-32.2653,125.4894
011024,JURANDA ROCK HOLE,-33.2167,123.45
011025,MOONERA,-31.7219,126.5889
011026,MOUNT RAGGED 1,-33.75,123.1
011027,MOUNT RAGGED 2,-33.6167,123.2667
011028,MOUNT RAGGED NO 3,-33.4667,123.45
011029,ARUBIDDY,-31.8097,125.9267
011030,RAWLINNA HOMESTEAD,-31.0417,125.2164
011031,NEVERTIRE,-31.3497,125.2231
011032,RAWLINNA DEPOT,-31.5803,125.2019
011033,MCTAGGARTS,-31.9178,125.3008
011034,BARVESK,-31.6436,124.935
011035,BULL CAMEL,-31.1956,124.8481
011036,COCKLEBIDDY,-32.0403,126.0964
011037,FORREST ROAD,-31.445,127.945
011038,NOONERA,-32.0783,127.9367
011039,UANA,-31.6317,127.93
011040,WANTEEN,-31.9681,128.2831
011041,SEEMORE DOWNS,-30.7428,125.2936
011042,BOOANYA,-32.75,123.6
011043,KINCLAVEN,-30.895,125.5117
011044,BALLADONIA MOTEL,-32.45,123.6
011045,BALGAIR,-31.09,125.6589
011046,DERALINYA,-33.1,123.3
011047,WA/SA BORDER VILLAGE,-31.6406,129.0019
011048,NIGHTSHADE,-32.1761,125.3953
011049,MUNDRABILLA ROADHOUSE,-31.8167,128.2333
011050,KYBO,-31.0239,126.5842
011051,NO WORRIES,-33.2986,123.0658
011052,FORREST,-30.8453,128.1092
011053,RED ROCKS POINT,-32.2028,127.5297
012000,AGNEW,-28.0069,120.5092
012001,ALBION DOWNS,-27.2878,120.3919
012002,ANKETELL,-28.0272,118.8472
012003,ATLEY,-28.225,119.0703
012004,WALGOOLAN AVALON,-31.2333,118.5667
012005,BLACKHILL,-28.0667,119.5167
012006,BODALLIN,-31.3667,118.85
012007,BOODAROCKIN,-31.0603,118.8367
012008,BOOYLGOO SPRING,-27.7228,119.9067
012009,NORSEMAN AERO,-32.2147,121.7547
012010,WESTONIA 1,-31.0539,118.7144
012011,BULLFINCH,-30.9836,119.0669
012012,BULLFINCH NORTH,-30.8,119.1
012013,BULONG,-30.7503,121.7519
012014,MUNGARI,-30.8725,121.2569
012015,TARMOOLA 10 MILE CAMP,-28.3967,121.2356
012016,CIRCLE VALLEY POST OFFICE,-33.0833,121.75
012017,CIRCLE VALLEY EAST,-33.05,121.8
012018,COOLGARDIE,-30.9586,121.1739
012019,COONANA,-31.0225,123.1617
012020,MUNJEROO,-28.2333,120.15
012021,MULGAROONA,-28.45,120.5
012022,CASHMERE DOWNS,-28.97,119.5686
012023,DANIELL,-32.5833,121.5833
012024,DAVEYHURST MULWARRIE,-30.0,120.6
012025,DEPOT SPRINGS,-27.9332,120.0577
012026,BODALLIN SOUTH,-31.6419,118.9019
012027,EDJUDINA,-29.8119,122.3547
012028,GORYA VALLEY,-33.0372,121.6644
012029,FRASER RANGE,-32.0339,122.8017
012030,GATHERER,-31.4,119.4
012031,GIDGEE BIRRIGRIN,-27.5058,119.515
012032,GLENORN,-29.0869,121.6753
012033,GRASS PATCH,-33.2256,121.7375
012034,MOUNT WELD HACKS WELL,-28.97,122.5183
012035,HIGGINSVILLE,-31.7333,121.6333
012036,IDA VALLEY,-28.7053,120.5058
012037,JEEDAMYA,-29.4033,121.2736
012038,KALGOORLIE-BOULDER AIRPORT,-30.7847,121.4533
012039,KALGOORLIE POST OFFICE,-30.75,121.4667
012040,KANOWNA,-30.6,121.6
012041,KARONIE,-30.9667,122.5333
012042,KATHLEEN VALLEY,-27.5,120.5167
012043,KOOKYNIE,-29.3361,121.4944
012044,MUNGLINUP WEST,-33.5547,120.6997
012045,LAVERTON,-28.6303,122.4072
012046,LEONORA,-28.8879,121.3302
012047,LINDEN,-29.3,122.4
012048,MARVEL LOCH,-31.4667,119.4922
012049,MATHOURA,-31.2,118.9
012050,MELITA,-29.0567,121.4433
012051,MENANGINA,-29.8272,121.9158
012052,MENZIES,-29.6939,121.0297
012053,MOORINE ROCK,-31.3125,119.1281
012054,DOBRA SCRITIA,-31.4161,119.0467
012055,MOORINE ROCK SOUTH,-31.4,119.1
012056,MOREE,-31.5939,119.1419
012057,MOUNT HAMPTON,-31.72,119.0883
012058,MOUNT KEITH,-27.2792,120.5067
012059,MOUNT SIR SAMUEL,-27.6,120.55
012060,MOUNT WELD,-28.7744,122.4436
012061,MINARA,-28.9169,121.7971
012062,NAMBI,-28.3897,121.6775
012063,NARETHA,-31.0,124.8333
012064,NOONGAAR,-31.33,118.9672
012065,NORSEMAN,-32.1981,121.7794
012066,ORA BANDA,-30.3764,121.0633
012067,PINNACLES,-28.1969,120.4378
012068,RANDELL SIDING,-30.9333,122.2333
012069,RED LAKE,-33.1333,121.6833
012070,SALMON GUMS,-32.9803,121.6433
012071,SALMON GUMS RES.STN.,-32.9869,121.6239
012072,SANDSTONE,-27.9872,119.2973
012073,SCADDAN POST OFFICE,-33.4425,121.7228
012074,SOUTHERN CROSS,-31.2319,119.3281
012075,SPEDDINGUP,-33.5172,121.75
012076,THE HERMATIGE,-32.8,121.5
012077,I DUNNO,-32.8606,121.7081
012078,TRANS RAILWAY 1072,-30.9,122.0
012079,TURKEY HILL NORTH,-31.0378,119.3064
012080,LUKENDA,-33.5742,121.6467
012081,WARRALAKIN,-31.0297,118.5597
012082,WEEBO,-28.0075,121.0784
012083,WESTONIA,-31.3017,118.698
012084,WIDGIEMOOLTHA,-31.4942,121.5781
012085,WILBAH,-28.9,120.7
012086,WILSONS PATCH,-28.3,121.1833
012087,WYE FARM,-33.1,121.6667
012088,YAKABINDIE,-27.575,120.5319
012089,YANDAL,-27.5644,121.1483
012090,YEELIRRIE,-27.2842,120.0931
012091,YOUANMI DOWNS,-28.5567,118.8103
012092,YUINMERY,-28.5606,119.0161
012093,YUNDAMINDRA,-29.2472,122.1022
012094,ZANTHUS,-31.0319,123.5669
012095,ERLISTOUN,-27.9717,122.325
012096,DANDARAGA,-28.1419,119.3058
012097,KARMALA,-31.15,118.95
012098,WALGOOLAN,-31.3825,118.5617
012099,WALGOOLAN NORTH,-31.1828,118.5964
012100,WALGOOLAN SOUTH,-31.5,118.6
012101,SEVEN OAKS,-31.3214,118.5475
012102,CUNDEELEE,-30.7233,123.425
012103,KORONG,-28.62,121.0167
012104,MALCOLM,-28.9,121.5
012105,GILGAI FARM,-33.1833,121.65
012106,WOOLIBAR,-31.0731,121.665
012107,BRAESIDE,-33.4226,121.9898
012108,WONGANOO,-27.1397,121.3397
012109,YELLOWDINE,-31.3,119.65
012110,GIDGEE GOLD MINE,-27.2533,119.4075
012111,MOUNT MARGARET,-28.7967,122.18
012112,ALTONA,-27.5389,119.9861
012113,BOANAERNUP,-33.5833,120.9667
012114,RICHFIELDS,-33.6839,120.6958
012115,KOOLGUBBIN,-29.8333,126.9667
012116,MOUNT WELD WILGA,-29.1317,122.5317
012117,KAMBALDA WEST,-31.2186,121.6181
012118,DIONITE KING,-28.6,121.05
012119,LEINSTER DOWNS,-27.8483,120.6017
012120,YOUANMI,-28.65,119.0167
012121,ROUND TOP HILL,-32.2156,120.4417
012122,YILGARN EXP.FARM,-31.0,119.0
012123,BARDOC,-30.3,121.3
012124,BOONDI,-31.2,120.4
012125,BOORABBIN,-31.2,120.3
012126,BROAD ARROW,-30.45,121.3
012127,BULLA BULLING,-31.0167,120.8667
012128,BURBANKS,-31.0,121.1
012129,BURBRIDGE,-31.5,119.6
012130,BURTVILLE,-28.8,122.6
012131,CLAVERLEY,-33.2,121.7
012132,COMET VALE,-29.9,121.1
012133,CORINTHIA FARM,-31.2,119.3
012134,DARDA,-27.65,121.3667
012135,NINETY MILE TANK,-32.6831,120.6944
012136,DESDEMONA,-29.1,121.25
012137,DOYLES WELL,-28.5,120.9833
012138,DUKETON,-27.65,122.3
012139,DUNDAS,-32.4,121.8
012140,KANGA DOWNS,-33.3619,121.0614
012141,WINDARLING,-30.0242,119.28
012142,EULINNA,-30.3,122.5
012143,FLEMING GROVE,-33.5667,121.7667
012144,GIBB ROCK,-32.1,119.2
012145,GOONGARRIE,-30.05,121.15
